[
 {
   "Name": "2hunned Inc Nonprofit",
   "Notes": "3rd Friday 3pm - 6pm & 3rd Saturday 8am-11am",
   "Address Short": "2028 E. El Segundo Blvd",
   "City State Zip": "Compton, CA 90222, United States",
   "Address Consolidated": "2028 E. El Segundo Blvd Compton, CA 90222, United States",
   "Latitude": 33.9159436,
   "Longitude": -118.2362831
 },
 {
   "Name": "A World With Compassion",
   "Notes": "2nd & 4th Saturday 12pm-3pm",
   "Address Short": "2912 Guirado St",
   "City State Zip": "Los Angeles, CA 90023, United States",
   "Address Consolidated": "2912 Guirado St Los Angeles, CA 90023, United States",
   "Latitude": 34.0324539,
   "Longitude": -118.2072934
 },
 {
   "Name": "Aaron Community Cultural Center (ACCC)",
   "Notes": "Tuesdays 10am-12pm",
   "Address Short": "1010 W 108th Street #B",
   "City State Zip": "Los Angeles, CA 90044, United States",
   "Address Consolidated": "1010 W 108th Street #B Los Angeles, CA 90044, United States",
   "Latitude": 33.9379128,
   "Longitude": -118.29252
 },
 {
   "Name": "Abundant Blessings",
   "Notes": "Sunday-Saturday 9am - 12pm",
   "Address Short": "2414 W. 48th St",
   "City State Zip": "Los Angeles, CA 90043, United States",
   "Address Consolidated": "2414 W. 48th St Los Angeles, CA 90043, United States",
   "Latitude": 33.9998775,
   "Longitude": -118.3198318
 },
 {
   "Name": "Adonai SDA Church",
   "Notes": "1st and 3rd Saturday 3pm-5pm",
   "Address Short": "13246 Mapledale Street",
   "City State Zip": "Norwalk, CA 90650, United States",
   "Address Consolidated": "13246 Mapledale Street Norwalk, CA 90650, United States",
   "Latitude": 33.898381,
   "Longitude": -118.0484998
 },
 {
   "Name": "Adventures to Dreams Enrichment",
   "Notes": "3rd Friday 12pm-2pm",
   "Address Short": "903 De Forest Ave",
   "City State Zip": "Long Beach, CA 90813, United States",
   "Address Consolidated": "903 De Forest Ave Long Beach, CA 90813, United States",
   "Latitude": 33.7774309,
   "Longitude": -118.2036404
 },
 {
   "Name": "AfricActive Foundation, Inc.",
   "Notes": "Saturday 11am - 1pm",
   "Address Short": "5036 Exposition Blvd",
   "City State Zip": "Los Angeles, CA 90016, United States",
   "Address Consolidated": "5036 Exposition Blvd Los Angeles, CA 90016, United States",
   "Latitude": 34.0243854,
   "Longitude": -118.3525417
 },
 {
   "Name": "Agape Community Church",
   "Notes": "Saturday 9:30am-10:30am",
   "Address Short": "1722 E Lancaster Blvd",
   "City State Zip": "Lancaster, CA 93535, United States",
   "Address Consolidated": "1722 E Lancaster Blvd Lancaster, CA 93535, United States",
   "Latitude": 34.6960893,
   "Longitude": -118.0981484
 },
 {
   "Name": "All Nations Christian Fellowship",
   "Notes": "Saturdays 7am - 9am",
   "Address Short": "5602 E. Gage Ave",
   "City State Zip": "Bell Gardens, CA 90201, United States",
   "Address Consolidated": "5602 E. Gage Ave Bell Gardens, CA 90201, United States",
   "Latitude": 33.9754377,
   "Longitude": -118.1648903
 },
 {
   "Name": "All Peoples Community Center",
   "Notes": "Friday 9:30am-12:30pm & 2nd & 4th Saturday 9:30am-12:30pm",
   "Address Short": "822 E. 20th Street",
   "City State Zip": "Los Angeles, CA 90011, United States",
   "Address Consolidated": "822 E. 20th Street Los Angeles, CA 90011, United States",
   "Latitude": 34.0259008,
   "Longitude": -118.2564727
 },
 {
   "Name": "All Saints Conference",
   "Notes": "Bi-Weekly Saturday 9 - 11am",
   "Address Short": "3431 Portola Avenue",
   "City State Zip": "Los Angeles, CA 90032, United States",
   "Address Consolidated": "3431 Portola Avenue Los Angeles, CA 90032, United States",
   "Latitude": 34.0856956,
   "Longitude": -118.1729503
 },
 {
   "Name": "Altadena S.D.A. Church",
   "Notes": "2nd and 4th Tuesday 9am - 12pm",
   "Address Short": "2609 N. Lincoln Avenue",
   "City State Zip": "Altadena, CA 91001, United States",
   "Address Consolidated": "2609 N. Lincoln Avenue Altadena, CA 91001, United States",
   "Latitude": 34.1906504,
   "Longitude": -118.1587869
 },
 {
   "Name": "Altadena Street Closure",
   "Notes": "11/20/2025 | 9am - 12pm",
   "Address Short": "2300 North Marengo Avenue",
   "City State Zip": "Altadena, CA 91001, United States",
   "Address Consolidated": "2300 North Marengo Avenue Altadena, CA 91001, United States",
   "Latitude": 34.1848173,
   "Longitude": -118.1439186
 },
 {
   "Name": "Ananda Marga of L.A., Inc.",
   "Notes": "Friday 8:30am-10:30am",
   "Address Short": "1245 S Norton Avenue",
   "City State Zip": "Los Angeles, CA 90019, United States",
   "Address Consolidated": "1245 S Norton Avenue Los Angeles, CA 90019, United States",
   "Latitude": 34.0483498,
   "Longitude": -118.32383
 },
 {
   "Name": "Ancon Club Los Angeles",
   "Notes": "2nd & 4th Saturday 10am-12pm",
   "Address Short": "15307 Crenshaw Blvd",
   "City State Zip": "Gardena, CA 90249, United States",
   "Address Consolidated": "15307 Crenshaw Blvd Gardena, CA 90249, United States",
   "Latitude": 33.8921623,
   "Longitude": -118.3267772
 },
 {
   "Name": "Anointed To Minister Ministries",
   "Notes": "Friday 4pm - 6pm",
   "Address Short": "169 W. Ave J - 5 #A",
   "City State Zip": "Lancaster, CA 93534, United States",
   "Address Consolidated": "169 W. Ave J - 5 #A Lancaster, CA 93534, United States",
   "Latitude": 34.6855142,
   "Longitude": -118.1323608
 },
 {
   "Name": "Answered Prayer Ministries",
   "Notes": "3rd Saturday 11am-3pm",
   "Address Short": "6743 5th Ave",
   "City State Zip": "Los Angeles, CA 90043, United States",
   "Address Consolidated": "6743 5th Ave Los Angeles, CA 90043, United States",
   "Latitude": 33.9769677,
   "Longitude": -118.3228539
 },
 {
   "Name": "Antelope Valley Boys & Girls Club",
   "Notes": "Friday 10am-12pm",
   "Address Short": "45404 Division St",
   "City State Zip": "Lancaster, Ca 93535, United States",
   "Address Consolidated": "45404 Division St Lancaster, Ca 93535, United States",
   "Latitude": 34.7071651,
   "Longitude": -118.1296214
 },
 {
   "Name": "Antelope Valley Partners for Health",
   "Notes": "2nd & 4th Friday 8 am - 11 am",
   "Address Short": "858 W. Jackman Street",
   "City State Zip": "Lancaster, CA 93534, United States",
   "Address Consolidated": "858 W. Jackman Street Lancaster, CA 93534, United States",
   "Latitude": 34.7008519,
   "Longitude": -118.1465622
 },
 {
   "Name": "Arabic Evangelical Church",
   "Notes": "1st and 3rd Sunday 1pm - 2pm, 1st and 3rd Friday 630pm 8pm",
   "Address Short": "8109 Greenleaf Avenue",
   "City State Zip": "Whittier, CA 90602, United States",
   "Address Consolidated": "8109 Greenleaf Avenue Whittier, CA 90602, United States",
   "Latitude": 33.9666913,
   "Longitude": -118.0377675
 },
 {
   "Name": "Asian Youth Center",
   "Notes": "Tuesday & Thursday 8:30am-10:30am & 1st & 3rd Wednesday 8:30am-10:30am",
   "Address Short": "100 Clary Avenue",
   "City State Zip": "San Gabriel, CA 91776, United States",
   "Address Consolidated": "100 Clary Avenue San Gabriel, CA 91776, United States",
   "Latitude": 34.0976005,
   "Longitude": -118.1002908
 },
 {
   "Name": "Assembly of God Of Hawthorne",
   "Notes": "Sunday 1200pm - 130pm, Wednesday 730pm - 900pm",
   "Address Short": "3841 W. 130th St.",
   "City State Zip": "Hawthorne, CA 90250, United States",
   "Address Consolidated": "3841 W. 130th St. Hawthorne, CA 90250, United States",
   "Latitude": 33.9150829,
   "Longitude": -118.3408985
 },
 {
   "Name": "Atheists United",
   "Notes": "3rd Friday 3:30pm - 5:30pm",
   "Address Short": "2535 W. Temple St",
   "City State Zip": "Los Angeles, CA 90026, United States",
   "Address Consolidated": "2535 W. Temple St Los Angeles, CA 90026, United States",
   "Latitude": 34.072661,
   "Longitude": -118.274616
 },
 {
   "Name": "Atherton Baptist Church",
   "Notes": "2nd & 4th Saturday 10am-1pm",
   "Address Short": "2627 W. 116th St",
   "City State Zip": "Hawthorne, CA 90250, United States",
   "Address Consolidated": "2627 W. 116th St Hawthorne, CA 90250, United States",
   "Latitude": 33.9289895,
   "Longitude": -118.3223126
 },
 {
   "Name": "Autistm Doesn't Define Me Academy",
   "Notes": "Thursday10/02, 10/16, 11/05, 11/19  8am-11:30am and 1pm-3pm",
   "Address Short": "10356 Wilmington Ave",
   "City State Zip": "Los Angeles, CA 90002, United States",
   "Address Consolidated": "10356 Wilmington Ave Los Angeles, CA 90002, United States",
   "Latitude": 33.9420897,
   "Longitude": -118.2388511
 },
 {
   "Name": "Baldwin Park Bilingual S.D.A. Church",
   "Notes": "1st & 3rd Wednesday 4pm - 7pm",
   "Address Short": "13965 E. Ramona Parkway",
   "City State Zip": "Baldwin Park, CA 91706, United States",
   "Address Consolidated": "13965 E. Ramona Parkway Baldwin Park, CA 91706, United States",
   "Latitude": 34.0851569,
   "Longitude": -117.9695007
 },
 {
   "Name": "Belvedere Park",
   "Notes": "11/24/2025 | 9am - 12pm",
   "Address Short": "210 North Mednik Avenue",
   "City State Zip": "Los Angeles, CA 90022, United States",
   "Address Consolidated": "210 North Mednik Avenue Los Angeles, CA 90022, United States",
   "Latitude": 34.0380982,
   "Longitude": -118.1617505
 },
 {
   "Name": "Belvue Presbyterian Church",
   "Notes": "4th Thursday 10 am - 11am",
   "Address Short": "675 E. 118th Street",
   "City State Zip": "Los Angeles, CA 90059, United States",
   "Address Consolidated": "675 E. 118th Street Los Angeles, CA 90059, United States",
   "Latitude": 33.9267173,
   "Longitude": -118.2625438
 },
 {
   "Name": "Berean SDA Church",
   "Notes": "2nd and 4th Thursday 9:00 am - 12:00 pm",
   "Address Short": "4211 W Adams Blvd",
   "City State Zip": "Los Angeles, CA 90018, United States",
   "Address Consolidated": "4211 W Adams Blvd Los Angeles, CA 90018, United States",
   "Latitude": 34.0329904,
   "Longitude": -118.3309846
 },
 {
   "Name": "Bethany Church",
   "Notes": "3rd Saturday 9am - 1030am",
   "Address Short": "763 N. Sunset Ave",
   "City State Zip": "West Covina, CA 91790, United States",
   "Address Consolidated": "763 N. Sunset Ave West Covina, CA 91790, United States",
   "Latitude": 34.0856399,
   "Longitude": -117.9355181
 },
 {
   "Name": "Bethel Unspeakable Joy Christian Church",
   "Notes": "2nd, 4th Saturday 8am - 10am",
   "Address Short": "8724 S. Central Avenue",
   "City State Zip": "Los Angeles, CA 90002, United States",
   "Address Consolidated": "8724 S. Central Avenue Los Angeles, CA 90002, United States",
   "Latitude": 33.9585507,
   "Longitude": -118.2560928
 },
 {
   "Name": "Bethesda Temple Church",
   "Notes": "4th Saturday 9am - 12pm",
   "Address Short": "4915 Crenshaw Boulevard",
   "City State Zip": "Los Angeles, CA 90043, United States",
   "Address Consolidated": "4915 Crenshaw Boulevard Los Angeles, CA 90043, United States",
   "Latitude": 33.9978521,
   "Longitude": -118.3313872
 },
 {
   "Name": "Blessed Sacrament Food Pantry",
   "Notes": "Saturday 9 am - 12 pm",
   "Address Short": "6657 Sunset Blvd.",
   "City State Zip": "Hollywood, CA 90028, United States",
   "Address Consolidated": "6657 Sunset Blvd. Hollywood, CA 90028, United States",
   "Latitude": 34.0985459,
   "Longitude": -118.3351142
 },
 {
   "Name": "Blue Shoes Adventure Kids, Inc.",
   "Notes": "Tuesday & Thursday 9am-10:30am",
   "Address Short": "9843 Ramona St",
   "City State Zip": "Bellflower, CA 90706, United States",
   "Address Consolidated": "9843 Ramona St Bellflower, CA 90706, United States",
   "Latitude": 33.8735164,
   "Longitude": -118.1235536
 },
 {
   "Name": "Boulevard Community Church of Lancaster",
   "Notes": "2nd & 4th Saturday 9 am - 10 am",
   "Address Short": "603 E. Lancaster Boulevard",
   "City State Zip": "Lancaster, CA 93535, United States",
   "Address Consolidated": "603 E. Lancaster Boulevard Lancaster, CA 93535, United States",
   "Latitude": 34.6971183,
   "Longitude": -118.1193987
 },
 {
   "Name": "Bread of Life Foursquare Gospel Church",
   "Notes": "Wednesday 11:30am-1:30pm",
   "Address Short": "5175 1/2 W. Washington Blvd.",
   "City State Zip": "Los Angeles, CA 90016, United States",
   "Address Consolidated": "5175 1/2 W. Washington Blvd. Los Angeles, CA 90016, United States",
   "Latitude": 34.04144,
   "Longitude": -118.35338
 },
 {
   "Name": "Breath of Life S.D.A. Church",
   "Notes": "1st, 3rd Thursday 12 pm - 2 pm",
   "Address Short": "425 S. La Brea",
   "City State Zip": "Inglewood, CA 90301, United States",
   "Address Consolidated": "425 S. La Brea Inglewood, CA 90301, United States",
   "Latitude": 33.9582226,
   "Longitude": -118.3536542
 },
 {
   "Name": "Bryant Temple AME Church",
   "Notes": "2nd, 4th Wednesday 10 am - 12 pm",
   "Address Short": "2514 W. Vernon Ave",
   "City State Zip": "Los Angeles, CA 90008, United States",
   "Address Consolidated": "2514 W. Vernon Ave Los Angeles, CA 90008, United States",
   "Latitude": 34.0035421,
   "Longitude": -118.3208312
 },
 {
   "Name": "Buddhist Tzu Chi Foundation",
   "Notes": "4th Saturday 9:15 am - 10:30 am",
   "Address Short": "1355 Broad Ave",
   "City State Zip": "Wilmington, CA 90744, United States",
   "Address Consolidated": "1355 Broad Ave Wilmington, CA 90744, United States",
   "Latitude": 33.790319,
   "Longitude": -118.2618976
 },
 {
   "Name": "Buddhist Tzu Chi Foundation",
   "Notes": "2nd Monday 9:30am - 10:30am",
   "Address Short": "341 La Seda Road",
   "City State Zip": "La Puente, CA 91744, United States",
   "Address Consolidated": "341 La Seda Road La Puente, CA 91744, United States",
   "Latitude": 34.0126803,
   "Longitude": -117.8981696
 },
 {
   "Name": "Buddhist Tzu Chi Foundation",
   "Notes": "2nd Saturday 9am-11am",
   "Address Short": "401 Corto Street",
   "City State Zip": "Alhambra, CA 91801, United States",
   "Address Consolidated": "401 Corto Street Alhambra, CA 91801, United States",
   "Latitude": 34.0907707,
   "Longitude": -118.1188971
 },
 {
   "Name": "Buddhist Tzu Chi Foundation",
   "Notes": "3rd Saturday 9:30am-11am Closed November 15 Closed December 20th, Resumes January 17th",
   "Address Short": "6720 Miles Ave",
   "City State Zip": "Huntington Park, CA 90255, United States",
   "Address Consolidated": "6720 Miles Ave Huntington Park, CA 90255, United States",
   "Latitude": 33.9779359,
   "Longitude": -118.2179399
 },
 {
   "Name": "Building Plus Community Marketplace, Inc.",
   "Notes": "2nd, 4th Friday 10 am - 1 pm",
   "Address Short": "1686 E. 103rd Street",
   "City State Zip": "Los Angeles, CA 90002, United States",
   "Address Consolidated": "1686 E. 103rd Street Los Angeles, CA 90002, United States",
   "Latitude": 33.9429531,
   "Longitude": -118.2430001
 },
 {
   "Name": "Burbank Temporary Aid Center",
   "Notes": "Monday - Friday 9 am - 12 pm",
   "Address Short": "1304 W. Burbank Blvd.",
   "City State Zip": "Burbank, CA 91506, United States",
   "Address Consolidated": "1304 W. Burbank Blvd. Burbank, CA 91506, United States",
   "Latitude": 34.1825283,
   "Longitude": -118.3260722
 },
 {
   "Name": "California Hospital Medical Center Foundation",
   "Notes": "Monday - Friday 8 am - 4:30 pm",
   "Address Short": "1600 S. Hope Street",
   "City State Zip": "Los Angeles, CA 90015, United States",
   "Address Consolidated": "1600 S. Hope Street Los Angeles, CA 90015, United States",
   "Latitude": 34.0360227,
   "Longitude": -118.2675112
 },
 {
   "Name": "California State University Dominguez Hills",
   "Notes": "Monday - Thursday 9am-1pm & 2pm-6pm & Friday 9am-1pm & 2pm-5pm",
   "Address Short": "1000 E. Victoria Street",
   "City State Zip": "Carson, CA 90747, United States",
   "Address Consolidated": "1000 E. Victoria Street Carson, CA 90747, United States",
   "Latitude": 33.8633881,
   "Longitude": -118.2544095
 },
 {
   "Name": "Calvary Chapel Downey",
   "Notes": "Mondays, Wednesday, Friday 10 am - 12 pm",
   "Address Short": "12808 Woodruff Ave",
   "City State Zip": "Downey, CA 90242, United States",
   "Address Consolidated": "12808 Woodruff Ave Downey, CA 90242, United States",
   "Latitude": 33.9154542,
   "Longitude": -118.1155596
 },
 {
   "Name": "Calvary Light Christian Center",
   "Notes": "Wednesday 9am-10:30am",
   "Address Short": "1101 N. Lakme Ave",
   "City State Zip": "Wilmington, CA 90744, United States",
   "Address Consolidated": "1101 N. Lakme Ave Wilmington, CA 90744, United States",
   "Latitude": 33.7708409,
   "Longitude": -118.2591073
 },
 {
   "Name": "Calvary Presbyterian Church",
   "Notes": "1st Saturday 8 am - 11 am",
   "Address Short": "13560 Hawthorne Boulevard",
   "City State Zip": "Hawthorne, CA 90250, United States",
   "Address Consolidated": "13560 Hawthorne Boulevard Hawthorne, CA 90250, United States",
   "Latitude": 33.9088684,
   "Longitude": -118.3519358
 },
 {
   "Name": "Carson Christian Reaching Out",
   "Notes": "1st & 3rd Saturday 10am-1pm",
   "Address Short": "17705 Central Ave",
   "City State Zip": "Carson, CA 90746, United States",
   "Address Consolidated": "17705 Central Ave Carson, CA 90746, United States",
   "Latitude": 33.8704351,
   "Longitude": -118.2491451
 },
 {
   "Name": "Carson Hope Community Church",
   "Notes": "Friday 9:30 am - 2 pm",
   "Address Short": "129 E. 223rd Street",
   "City State Zip": "Carson, CA 90745, United States",
   "Address Consolidated": "129 E. 223rd Street Carson, CA 90745, United States",
   "Latitude": 33.8244847,
   "Longitude": -118.2749375
 },
 {
   "Name": "Catholic Charities",
   "Notes": "Monday - Friday 9am-12pm & Monday, Tuesday, & Friday 1 pm - 4 pm",
   "Address Short": "4171 Tyler Avenue",
   "City State Zip": "El Monte, CA 91731, United States",
   "Address Consolidated": "4171 Tyler Avenue El Monte, CA 91731, United States",
   "Latitude": 34.0827868,
   "Longitude": -118.0319082
 },
 {
   "Name": "Catholic Charities - Brownson House",
   "Notes": "Monday - Friday 9 am - 12:30pm",
   "Address Short": "1307 Warren Street",
   "City State Zip": "Los Angeles, CA 90033, United States",
   "Address Consolidated": "1307 Warren Street Los Angeles, CA 90033, United States",
   "Latitude": 34.0520689,
   "Longitude": -118.2201788
 },
 {
   "Name": "Catholic Charities of Long Beach",
   "Notes": "Tuesday & Thursday 9:30 am - 12 pm & 1:30 pm - 3 pm",
   "Address Short": "123 E. 14th Street",
   "City State Zip": "Long Beach, CA 90813, United States",
   "Address Consolidated": "123 E. 14th Street Long Beach, CA 90813, United States",
   "Latitude": 33.784066,
   "Longitude": -118.1916422
 },
 {
   "Name": "Catholic Rainbow Outreach",
   "Notes": "Tuesday - Friday 11am-12pm & Saturday 10:30am-11:30am",
   "Address Short": "11419 Carmenita Road",
   "City State Zip": "Whittier, CA 90605, United States",
   "Address Consolidated": "11419 Carmenita Road Whittier, CA 90605, United States",
   "Latitude": 33.9277486,
   "Longitude": -118.0469897
 },
 {
   "Name": "Celebration Nation, Inc.",
   "Notes": "2nd & 4th Wednesday 12pm-2pm",
   "Address Short": "3540 N. Mission Rd.",
   "City State Zip": "Los Angeles, CA 90031, United States",
   "Address Consolidated": "3540 N. Mission Rd. Los Angeles, CA 90031, United States",
   "Latitude": 34.0667897,
   "Longitude": -118.2025122
 },
 {
   "Name": "Central Baptist Church",
   "Notes": "3rd Saturday 8am-10am",
   "Address Short": "1641 E. Carson Street",
   "City State Zip": "Carson, CA 90745, United States",
   "Address Consolidated": "1641 E. Carson Street Carson, CA 90745, United States",
   "Latitude": 33.8322979,
   "Longitude": -118.2428859
 },
 {
   "Name": "Central City Neighborhood Partners",
   "Notes": "Monday 2pm-5pm",
   "Address Short": "501 S. Bixel Street",
   "City State Zip": "Los Angeles, CA 90017, United States",
   "Address Consolidated": "501 S. Bixel Street Los Angeles, CA 90017, United States",
   "Latitude": 34.0548809,
   "Longitude": -118.2618214
 },
 {
   "Name": "Central Filipino S.D.A. Church",
   "Notes": "Thurday 9am-12pm",
   "Address Short": "777 Colorado Boulevard",
   "City State Zip": "Los Angeles, CA 90041, United States",
   "Address Consolidated": "777 Colorado Boulevard Los Angeles, CA 90041, United States",
   "Latitude": 34.1411218,
   "Longitude": -118.1829591
 },
 {
   "Name": "Central Lutheran Church",
   "Notes": "Monday 1 pm - 3 pm",
   "Address Short": "6425 Tyrone Ave",
   "City State Zip": "Van Nuys, CA 91401, United States",
   "Address Consolidated": "6425 Tyrone Ave Van Nuys, CA 91401, United States",
   "Latitude": 34.1871307,
   "Longitude": -118.4446209
 },
 {
   "Name": "Central Spanish SDA Church",
   "Notes": "2nd & 4th Saturday 12pm-5pm",
   "Address Short": "1366 S. Alvarado St",
   "City State Zip": "Los Angeles, CA 90006, United States",
   "Address Consolidated": "1366 S. Alvarado St Los Angeles, CA 90006, United States",
   "Latitude": 34.0456367,
   "Longitude": -118.2834725
 },
 {
   "Name": "Centro Cristiano Manantial de vida",
   "Notes": "1st & 2nd Monday 5pm - 7pm",
   "Address Short": "10035 Washington Street",
   "City State Zip": "Bellflower, CA 90706, United States",
   "Address Consolidated": "10035 Washington Street Bellflower, CA 90706, United States",
   "Latitude": 33.8986363,
   "Longitude": -118.1203988
 },
 {
   "Name": "Centro de Vida International Church Movement",
   "Notes": "Wednesday 10/08, 10/22, 11/05, 11/19, 12/03, 12/17  9am - 12pm",
   "Address Short": "9251 Burnet Avenue",
   "City State Zip": "North Hills, CA 91343, United States",
   "Address Consolidated": "9251 Burnet Avenue North Hills, CA 91343, United States",
   "Latitude": 34.2387872,
   "Longitude": -118.4636146
 },
 {
   "Name": "Cerritos College Foundation",
   "Notes": "Monday - Friday 8 am - 4 pm",
   "Address Short": "11110 Alondra Blvd",
   "City State Zip": "Norwalk, CA 90650, United States",
   "Address Consolidated": "11110 Alondra Blvd Norwalk, CA 90650, United States",
   "Latitude": 33.8844435,
   "Longitude": -118.0952808
 },
 {
   "Name": "Cerritos College MFP",
   "Notes": "4th Wednesday 9am-11am",
   "Address Short": "11110 Alondra Blvd",
   "City State Zip": "Norwalk, CA 90650, United States",
   "Address Consolidated": "11110 Alondra Blvd Norwalk, CA 90650, United States",
   "Latitude": 33.8844435,
   "Longitude": -118.0952808
 },
 {
   "Name": "Champions of Caring Connections",
   "Notes": "2nd Saturday 10am-12pm",
   "Address Short": "1019 N. Harris Ave",
   "City State Zip": "Compton, CA 90221, United States",
   "Address Consolidated": "1019 N. Harris Ave Compton, CA 90221, United States",
   "Latitude": 33.90282,
   "Longitude": -118.1996393
 },
 {
   "Name": "Champions of Caring Connections",
   "Notes": "1st Saturday 10am-12pm",
   "Address Short": "8204 S. Avalon Blvd",
   "City State Zip": "Los Angeles, CA 90003, United States",
   "Address Consolidated": "8204 S. Avalon Blvd Los Angeles, CA 90003, United States",
   "Latitude": 33.9645348,
   "Longitude": -118.2648592
 },
 {
   "Name": "Champions of Caring Connections",
   "Notes": "2nd Saturday 10am-12pm",
   "Address Short": "1601 E. Alondra Blvd",
   "City State Zip": "Compton, CA 90221, United States",
   "Address Consolidated": "1601 E. Alondra Blvd Compton, CA 90221, United States",
   "Latitude": 33.889095,
   "Longitude": -118.2048667
 },
 {
   "Name": "Champions of Caring Connections",
   "Notes": "1st Saturday 10am-12pm",
   "Address Short": "11205 S. Vermont Ave",
   "City State Zip": "Los Angeles, CA 90044, United States",
   "Address Consolidated": "11205 S. Vermont Ave Los Angeles, CA 90044, United States",
   "Latitude": 33.9326503,
   "Longitude": -118.2921992
 },
 {
   "Name": "Chapel of Peace Lutheran Church",
   "Notes": "3rd Saturday 9am - 12pm CLOSED 11/15 OPEN 11/22",
   "Address Short": "1009 N. Market Street",
   "City State Zip": "Inglewood, CA 90302, United States",
   "Address Consolidated": "1009 N. Market Street Inglewood, CA 90302, United States",
   "Latitude": 33.9769244,
   "Longitude": -118.3570567
 },
 {
   "Name": "Chapter Two Inc",
   "Notes": "Wednesday 11 am - 3 pm",
   "Address Short": "10127 S. Avalon Blvd",
   "City State Zip": "Los Angeles, CA 90003, United States",
   "Address Consolidated": "10127 S. Avalon Blvd Los Angeles, CA 90003, United States",
   "Latitude": 33.9438975,
   "Longitude": -118.2654972
 },
 {
   "Name": "Chapter Two Inc",
   "Notes": "Thursday 11am-2p",
   "Address Short": "1535 W. 62nd Street",
   "City State Zip": "Los Angeles, CA 90047, United States",
   "Address Consolidated": "1535 W. 62nd Street Los Angeles, CA 90047, United States",
   "Latitude": 33.9835432,
   "Longitude": -118.3038059
 },
 {
   "Name": "Children's Hospital Los Angeles",
   "Notes": "Wednesday 10am - 11am",
   "Address Short": "3250 Wilshire Blvd Suite 300",
   "City State Zip": "Los Angeles, CA 90027, United States",
   "Address Consolidated": "3250 Wilshire Blvd Suite 300 Los Angeles, CA 90027, United States",
   "Latitude": 34.0609334,
   "Longitude": -118.2930488
 },
 {
   "Name": "Chinese Community Service Center",
   "Notes": "1st Monday 9am- 12pm & 3rd Friday 9am-12pm",
   "Address Short": "1725 Beverly Boulevard, Suite 1 - B",
   "City State Zip": "Los Angeles, CA 90026, United States",
   "Address Consolidated": "1725 Beverly Boulevard, Suite 1 - B Los Angeles, CA 90026, United States",
   "Latitude": 34.0653471,
   "Longitude": -118.2665269
 },
 {
   "Name": "Christ Apostole Church of America",
   "Notes": "2nd and 4th Saturday 10am-12pm",
   "Address Short": "6625 4th Ave",
   "City State Zip": "Los Angeles, CA 90043, United States",
   "Address Consolidated": "6625 4th Ave Los Angeles, CA 90043, United States",
   "Latitude": 33.9783443,
   "Longitude": -118.3218613
 },
 {
   "Name": "Christ Gospel Prayer Center",
   "Notes": "Wednesdays 11am-1:30pm",
   "Address Short": "4702 S Vermont Avenue",
   "City State Zip": "Los Angeles, CA 90037, United States",
   "Address Consolidated": "4702 S Vermont Avenue Los Angeles, CA 90037, United States",
   "Latitude": 34.0003702,
   "Longitude": -118.2913325
 },
 {
   "Name": "Christ Living Gospel",
   "Notes": "1st and 3rd Saturday 8:30am - 12pm",
   "Address Short": "2221 Workman St.",
   "City State Zip": "Los Angeles, CA 90031, United States",
   "Address Consolidated": "2221 Workman St. Los Angeles, CA 90031, United States",
   "Latitude": 34.0713959,
   "Longitude": -118.2145619
 },
 {
   "Name": "Christ Living Gospel",
   "Notes": "1st and 3rd Saturday 8:30am - 12pm",
   "Address Short": "5466 Huntington Drive South",
   "City State Zip": "Los Angeles, CA 90032, United States",
   "Address Consolidated": "5466 Huntington Drive South Los Angeles, CA 90032, United States",
   "Latitude": 34.0923127,
   "Longitude": -118.1615468
 },
 {
   "Name": "Christ Our Shepherd Church",
   "Notes": "Wednesday 10am - 3pm",
   "Address Short": "3571 Eagle Rock Blvd",
   "City State Zip": "Los Angeles, CA 90065, United States",
   "Address Consolidated": "3571 Eagle Rock Blvd Los Angeles, CA 90065, United States",
   "Latitude": 34.1172872,
   "Longitude": -118.2349981
 },
 {
   "Name": "Christ the Good Shepherd Episcopal",
   "Notes": "4th Friday 9am - 11am",
   "Address Short": "3303 W. Vernon Avenue",
   "City State Zip": "Los Angeles, CA 90008, United States",
   "Address Consolidated": "3303 W. Vernon Avenue Los Angeles, CA 90008, United States",
   "Latitude": 34.0041928,
   "Longitude": -118.3296247
 },
 {
   "Name": "Christ the Savior American Coptic Orthodox Church",
   "Notes": "2nd & 4th Friday 5 pm - 7 pm",
   "Address Short": "10347 Mason Ave",
   "City State Zip": "Chatsworth, CA 91311, United States",
   "Address Consolidated": "10347 Mason Ave Chatsworth, CA 91311, United States",
   "Latitude": 34.2585965,
   "Longitude": -118.5802019
 },
 {
   "Name": "Christian Outreach in Action",
   "Notes": "Monday-Friday 10am - 12pm",
   "Address Short": "515 E. 3rd St.",
   "City State Zip": "Long Beach, CA 90802, United States",
   "Address Consolidated": "515 E. 3rd St. Long Beach, CA 90802, United States",
   "Latitude": 33.7707206,
   "Longitude": -118.186108
 },
 {
   "Name": "Christys Foundation",
   "Notes": "Thursdays 10 am - 2 pm OPEN 11/26 CANCELED 11/27",
   "Address Short": "9301 Tampa Ave Unit 46",
   "City State Zip": "Northridge, CA 91324, United States",
   "Address Consolidated": "9301 Tampa Ave Unit 46 Northridge, CA 91324, United States",
   "Latitude": 34.239887,
   "Longitude": -118.5563135
 },
 {
   "Name": "Church of the Nazarene - Rosemead",
   "Notes": "3rd Saturday 930am - 11am",
   "Address Short": "2703 Walnut Grove Avenue",
   "City State Zip": "Rosemead, CA 91770, United States",
   "Address Consolidated": "2703 Walnut Grove Avenue Rosemead, CA 91770, United States",
   "Latitude": 34.0610393,
   "Longitude": -118.0823061
 },
 {
   "Name": "Church of the Redeemer",
   "Notes": "Monday - Friday 9am - 12pm & Last Thursday 6pm-7:30pm",
   "Address Short": "3739 N. Monterey Avenue",
   "City State Zip": "Baldwin Park, CA 91706, United States",
   "Address Consolidated": "3739 N. Monterey Avenue Baldwin Park, CA 91706, United States",
   "Latitude": 34.0803117,
   "Longitude": -117.9766542
 },
 {
   "Name": "Church of the Valley",
   "Notes": "Tuesday 930am - 12pm",
   "Address Short": "6565 Vesper Blvd",
   "City State Zip": "Van Nuys, CA 91411, United States",
   "Address Consolidated": "6565 Vesper Blvd Van Nuys, CA 91411, United States",
   "Latitude": 34.1900109,
   "Longitude": -118.4512201
 },
 {
   "Name": "Church on the Way",
   "Notes": "11/20/2025 | 9am - 12pm",
   "Address Short": "14300 Sherman Way",
   "City State Zip": "Van Nuys, CA 91405, United States",
   "Address Consolidated": "14300 Sherman Way Van Nuys, CA 91405, United States",
   "Latitude": 34.2007633,
   "Longitude": -118.4449774
 },
 {
   "Name": "Citrus College",
   "Notes": "1st Monday 1pm - 3pm",
   "Address Short": "1000 W. Foothill Boulevard",
   "City State Zip": "Glendora, CA 91741, United States",
   "Address Consolidated": "1000 W. Foothill Boulevard Glendora, CA 91741, United States",
   "Latitude": 34.1355407,
   "Longitude": -117.8849584
 },
 {
   "Name": "City of Bell Gardens",
   "Notes": "3rd Saturday 10AM-1PM CLOSED 11/15 Open 11/22",
   "Address Short": "6662 Loveland St.",
   "City State Zip": "Bell Gardens, CA 90201, United States",
   "Address Consolidated": "6662 Loveland St. Bell Gardens, CA 90201, United States",
   "Latitude": 33.9669892,
   "Longitude": -118.1469086
 },
 {
   "Name": "City of Commerce",
   "Notes": "3rd Thursday 10:30am - 1pm",
   "Address Short": "5625 Jillson Street",
   "City State Zip": "Commerce, CA 90040, United States",
   "Address Consolidated": "5625 Jillson Street Commerce, CA 90040, United States",
   "Latitude": 34.0009006,
   "Longitude": -118.1575602
 },
 {
   "Name": "City of Cudahy",
   "Notes": "4th Thursday 9am-11am",
   "Address Short": "4835 Clara St",
   "City State Zip": "Cudahy, CA 90201, United States",
   "Address Consolidated": "4835 Clara St Cudahy, CA 90201, United States",
   "Latitude": 33.9658212,
   "Longitude": -118.1810626
 },
 {
   "Name": "City of El Monte",
   "Notes": "Monday- Friday 2pm-8pm & Saturday 12pm-5pm",
   "Address Short": "3125 Tyler Avenue",
   "City State Zip": "El Monte, CA 91731, United States",
   "Address Consolidated": "3125 Tyler Avenue El Monte, CA 91731, United States",
   "Latitude": 34.0658568,
   "Longitude": -118.0365395
 },
 {
   "Name": "City of El Monte",
   "Notes": "Monday- Friday 2pm-8pm & Saturday 12pm-5pm",
   "Address Short": "11431 McGirk Street",
   "City State Zip": "El Monte, CA 91731, United States",
   "Address Consolidated": "11431 McGirk Street El Monte, CA 91731, United States",
   "Latitude": 34.0854021,
   "Longitude": -118.0197066
 },
 {
   "Name": "City of El Monte",
   "Notes": "Monday- Friday 2pm-8pm & Saturday 12pm-5pm",
   "Address Short": "12127 Elliott Ave",
   "City State Zip": "El Monte, CA 91731, United States",
   "Address Consolidated": "12127 Elliott Ave El Monte, CA 91731, United States",
   "Latitude": 34.0560071,
   "Longitude": -118.0219023
 },
 {
   "Name": "City of El Monte",
   "Notes": "Monday- Friday 2pm-8pm & Saturday 12pm-5pm",
   "Address Short": "4140 Gibson Road",
   "City State Zip": "El Monte, CA 91731, United States",
   "Address Consolidated": "4140 Gibson Road El Monte, CA 91731, United States",
   "Latitude": 34.081578,
   "Longitude": -118.0487973
 },
 {
   "Name": "City of El Monte",
   "Notes": "Monday- Friday 12:30pm-1:30pm",
   "Address Short": "3120 Tyler Ave",
   "City State Zip": "El Monte, CA 91731, United States",
   "Address Consolidated": "3120 Tyler Ave El Monte, CA 91731, United States",
   "Latitude": 34.0655953,
   "Longitude": -118.0353615
 },
 {
   "Name": "City of Hawaiian Gardens",
   "Notes": "3rd Thursday 330 - 430pm",
   "Address Short": "21815 Pioneer Blvd",
   "City State Zip": "Hawaiian Gardens, CA 90716, United States",
   "Address Consolidated": "21815 Pioneer Blvd Hawaiian Gardens, CA 90716, United States",
   "Latitude": 33.8288517,
   "Longitude": -118.0822915
 },
 {
   "Name": "City of Maywood",
   "Notes": "3rd Monday 9 am - 11am",
   "Address Short": "4801 E. 58th St.",
   "City State Zip": "Maywood, CA 90270, United States",
   "Address Consolidated": "4801 E. 58th St. Maywood, CA 90270, United States",
   "Latitude": 33.9875724,
   "Longitude": -118.1781878
 },
 {
   "Name": "City of Norwalk/Department of Social Services",
   "Notes": "Tuesdays & Thursdays 9am- 12pm, 1pm - 5pm",
   "Address Short": "11929 Alondra Blvd",
   "City State Zip": "Norwalk, CA 90650, United States",
   "Address Consolidated": "11929 Alondra Blvd Norwalk, CA 90650, United States",
   "Latitude": 33.88792,
   "Longitude": -118.0789133
 },
 {
   "Name": "Clara Street Park MFP",
   "Notes": "2nd Thursday 9am-11am",
   "Address Short": "4835 Clara St.",
   "City State Zip": "Cudahy, CA 90201, United States",
   "Address Consolidated": "4835 Clara St. Cudahy, CA 90201, United States",
   "Latitude": 33.9658212,
   "Longitude": -118.1810626
 },
 {
   "Name": "Community Chapel World Outreach",
   "Notes": "Monday- Friday 12pm - 1pm Closed on all federal & state holidays",
   "Address Short": "12400 Studebaker Rd",
   "City State Zip": "Norwalk, CA 90650, United States",
   "Address Consolidated": "12400 Studebaker Rd Norwalk, CA 90650, United States",
   "Latitude": 33.9187103,
   "Longitude": -118.0988257
 },
 {
   "Name": "Community Missionary Baptist",
   "Notes": "Wednesday 10am-12pm",
   "Address Short": "14637 S. Bahama Street",
   "City State Zip": "Compton, CA 90220, United States",
   "Address Consolidated": "14637 S. Bahama Street Compton, CA 90220, United States",
   "Latitude": 33.8987534,
   "Longitude": -118.2534177
 },
 {
   "Name": "Community of Faith Bible Church",
   "Notes": "2nd & 4th Sunday 1pm-3pm",
   "Address Short": "12025 Industrial Ave",
   "City State Zip": "South Gate, CA 90280, united States",
   "Address Consolidated": "12025 Industrial Ave South Gate, CA 90280, united States",
   "Latitude": 33.9174449,
   "Longitude": -118.1643962
 },
 {
   "Name": "Community's Child",
   "Notes": "Thursday 3:30pm - 5pm",
   "Address Short": "612 W. E Street",
   "City State Zip": "Wilmington, CA 90744, United States",
   "Address Consolidated": "612 W. E Street Wilmington, CA 90744, United States",
   "Latitude": 33.7744529,
   "Longitude": -118.2695412
 },
 {
   "Name": "Community's Child",
   "Notes": "Wednesday 10AM-12 PM",
   "Address Short": "18807 Crenshaw Pl",
   "City State Zip": "Torrance, CA 90504, United States",
   "Address Consolidated": "18807 Crenshaw Pl Torrance, CA 90504, United States",
   "Latitude": 33.8592362,
   "Longitude": -118.3266496
 },
 {
   "Name": "Community's Child",
   "Notes": "Monday - Thursday 10am-4pm",
   "Address Short": "111 Figueroa Pl",
   "City State Zip": "Wilmington, CA 90744, United States",
   "Address Consolidated": "111 Figueroa Pl Wilmington, CA 90744, United States",
   "Latitude": 33.7763943,
   "Longitude": -118.2804577
 },
 {
   "Name": "Community's Child - Switzer Learning Center",
   "Notes": "Thursday 1:45pm-3:15pm",
   "Address Short": "2201 Amapola Ct",
   "City State Zip": "Torrance, CA 90501, United States",
   "Address Consolidated": "2201 Amapola Ct Torrance, CA 90501, United States",
   "Latitude": 33.8447536,
   "Longitude": -118.3225127
 },
 {
   "Name": "Compatior, Inc",
   "Notes": "4th Wednesday 10am - 6pm",
   "Address Short": "4363 Tweedy Blvd",
   "City State Zip": "South Gate, CA 90280, United States",
   "Address Consolidated": "4363 Tweedy Blvd South Gate, CA 90280, United States",
   "Latitude": 33.9432088,
   "Longitude": -118.1952428
 },
 {
   "Name": "Compton College MFP",
   "Notes": "2nd Tuesday 1pm-3pm",
   "Address Short": "1111 E. Artesia Blvd",
   "City State Zip": "Compton, CA 90221, United States",
   "Address Consolidated": "1111 E. Artesia Blvd Compton, CA 90221, United States",
   "Latitude": 33.8774581,
   "Longitude": -118.2110327
 },
 {
   "Name": "CONASUPO",
   "Notes": "Saturday 10am-12pm",
   "Address Short": "3283 Garfield Ave",
   "City State Zip": "Commerce, CA 90040, United States",
   "Address Consolidated": "3283 Garfield Ave Commerce, CA 90040, United States",
   "Latitude": 33.9856987,
   "Longitude": -118.1400262
 },
 {
   "Name": "Congregational Church of Chatsworth - FISH of West",
   "Notes": "Wednesdays from 2-4pm, Saturdays from 1-3:30pm",
   "Address Short": "20440 Lassen St.",
   "City State Zip": "Chatsworth, CA 91311, United States",
   "Address Consolidated": "20440 Lassen St. Chatsworth, CA 91311, United States",
   "Latitude": 34.2495989,
   "Longitude": -118.5788799
 },
 {
   "Name": "Cover the Homeless Ministry",
   "Notes": "Last Thursday of the month 12pm - 1pm",
   "Address Short": "4425 South Central Avenue",
   "City State Zip": "Los Angeles, CA 90011, United States",
   "Address Consolidated": "4425 South Central Avenue Los Angeles, CA 90011, United States",
   "Latitude": 34.003116,
   "Longitude": -118.2567737
 },
 {
   "Name": "Crenshaw Baptist Church of Torrance",
   "Notes": "2nd Wednesday 9am-11am",
   "Address Short": "18749 Crenshaw Blvd",
   "City State Zip": "Torrance, CA 90504, United States",
   "Address Consolidated": "18749 Crenshaw Blvd Torrance, CA 90504, United States",
   "Latitude": 33.8600152,
   "Longitude": -118.3273172
 },
 {
   "Name": "Crete Academy",
   "Notes": "1st and 3rd Friday 3:30 pm - 5:30 pm",
   "Address Short": "6103 Crenshaw Blvd",
   "City State Zip": "Los Angeles, CA 90043, United States",
   "Address Consolidated": "6103 Crenshaw Blvd Los Angeles, CA 90043, United States",
   "Latitude": 33.9844793,
   "Longitude": -118.3313125
 },
 {
   "Name": "Crossroads Church First Assembly",
   "Notes": "1st Saturday 10am - 12pm & 3rd Saturday 9am 12pm",
   "Address Short": "1900 E. South Street",
   "City State Zip": "Long Beach, CA 90805, United States",
   "Address Consolidated": "1900 E. South Street Long Beach, CA 90805, United States",
   "Latitude": 33.8599098,
   "Longitude": -118.1692711
 },
 {
   "Name": "Crossroads Multinational Church of the Nazarene",
   "Notes": "Sunday 8:30am - 9:30am",
   "Address Short": "12229 E. Delamo Blvd",
   "City State Zip": "Cerritos, CA 90703, United States",
   "Address Consolidated": "12229 E. Delamo Blvd Cerritos, CA 90703, United States",
   "Latitude": 33.8466462,
   "Longitude": -118.0711152
 },
 {
   "Name": "Crusaders Temple Church of God In Christ",
   "Notes": "3rd Friday 9:30am-12:30pm",
   "Address Short": "9100 Hooper Ave",
   "City State Zip": "Los Angeles, CA 90002, United States",
   "Address Consolidated": "9100 Hooper Ave Los Angeles, CA 90002, United States",
   "Latitude": 33.9537572,
   "Longitude": -118.2537018
 },
 {
   "Name": "Del Aire Baptist Church",
   "Notes": "Tuesday 1pm-3pm / Friday 2pm-4pm /& Saturday 9am-11am",
   "Address Short": "4951 W. 119th Place",
   "City State Zip": "Hawthorne, CA 90250, United States",
   "Address Consolidated": "4951 W. 119th Place Hawthorne, CA 90250, United States",
   "Latitude": 33.924772,
   "Longitude": -118.3653948
 },
 {
   "Name": "Desert Reign",
   "Notes": "Wednesdays 9 am - 11 am, 11/12, 11/25, CLOSED 11/26, 12/10, 12/23, CLOSED 12/24",
   "Address Short": "11610 Lakewood Blvd",
   "City State Zip": "Downey, CA 90241, United States",
   "Address Consolidated": "11610 Lakewood Blvd Downey, CA 90241, United States",
   "Latitude": 33.9312371,
   "Longitude": -118.1258398
 },
 {
   "Name": "Desert Vineyard Christian Fellowship",
   "Notes": "Wednesday 11 am - 2 pm",
   "Address Short": "1011 East Ave I",
   "City State Zip": "Lancaster, CA 93535, United States",
   "Address Consolidated": "1011 East Ave I Lancaster, CA 93535, United States",
   "Latitude": 34.7046416,
   "Longitude": -118.1111706
 },
 {
   "Name": "Designated Exceptional Service for Independence",
   "Notes": "Wednesday 10am - 12pm &  Friday 10:30am - 12pm",
   "Address Short": "646 S. Atlantic Blvd.",
   "City State Zip": "Los Angeles, CA 90022, United States",
   "Address Consolidated": "646 S. Atlantic Blvd. Los Angeles, CA 90022, United States",
   "Latitude": 34.0235037,
   "Longitude": -118.1560236
 },
 {
   "Name": "Destiny Praise Worship Center",
   "Notes": "3rd Saturday 10 am-12 pm",
   "Address Short": "5115 Atlantic Ave",
   "City State Zip": "Long Beach, CA 90805, United States",
   "Address Consolidated": "5115 Atlantic Ave Long Beach, CA 90805, United States",
   "Latitude": 33.8491242,
   "Longitude": -118.1852309
 },
 {
   "Name": "Detours Mentoring Group. Inc.",
   "Notes": "4th Saturday 12pm-2pm",
   "Address Short": "1202 West 135th St",
   "City State Zip": "Gardena, CA 90247, United States",
   "Address Consolidated": "1202 West 135th St Gardena, CA 90247, United States",
   "Latitude": 33.9089897,
   "Longitude": -118.296681
 },
 {
   "Name": "Dominion International Center",
   "Notes": "2nd & 3rd Saturday 10am-11am",
   "Address Short": "16630 S. Broadway, Suite B.",
   "City State Zip": "Gardena, CA 90248, United States",
   "Address Consolidated": "16630 S. Broadway, Suite B. Gardena, CA 90248, United States",
   "Latitude": 33.8799034,
   "Longitude": -118.2775986
 },
 {
   "Name": "Door of Hope Ministries",
   "Notes": "Monday & Thursday 9am - 11am",
   "Address Short": "1325 S. Atlantic Blvd",
   "City State Zip": "Los Angeles, CA 90022, United States",
   "Address Consolidated": "1325 S. Atlantic Blvd Los Angeles, CA 90022, United States",
   "Latitude": 34.0133669,
   "Longitude": -118.1597292
 },
 {
   "Name": "Door to Door II, Inc.",
   "Notes": "1st and 3rd Thursday 1pm - 3pm",
   "Address Short": "2405 W. Florence Avenue",
   "City State Zip": "Los Angeles, CA 90043, United States",
   "Address Consolidated": "2405 W. Florence Avenue Los Angeles, CA 90043, United States",
   "Latitude": 33.9747987,
   "Longitude": -118.319998
 },
 {
   "Name": "Downey First Christian Church",
   "Notes": "Saturday 900am - 1200pm",
   "Address Short": "10909 New St.",
   "City State Zip": "Downey, CA 90241, United States",
   "Address Consolidated": "10909 New St. Downey, CA 90241, United States",
   "Latitude": 33.943067,
   "Longitude": -118.1326577
 },
 {
   "Name": "Dream City Church Whittier",
   "Notes": "Saturday 11 am - 1 pm",
   "Address Short": "8434 S. Greenleaf Avenue",
   "City State Zip": "Whittier, CA 90602, United States",
   "Address Consolidated": "8434 S. Greenleaf Avenue Whittier, CA 90602, United States",
   "Latitude": 33.9627584,
   "Longitude": -118.0394864
 },
 {
   "Name": "Duarte Church of Christ",
   "Notes": "1st & 3rd Tuesday 10:30am-1pm",
   "Address Short": "1330 S. Highland Ave",
   "City State Zip": "Duarte, CA 91010, United States",
   "Address Consolidated": "1330 S. Highland Ave Duarte, CA 91010, United States",
   "Latitude": 34.1376796,
   "Longitude": -117.9659952
 },
 {
   "Name": "Eagle Rock Lutheran Church",
   "Notes": "2nd & 4th Saturday 10:30 AM - 12 PM",
   "Address Short": "5032 N Maywood ave",
   "City State Zip": "Los Angeles, CA 90041, United States",
   "Address Consolidated": "5032 N Maywood ave Los Angeles, CA 90041, United States",
   "Latitude": 34.1371815,
   "Longitude": -118.2113164
 },
 {
   "Name": "East L.A. Bilingual S.D.A. Church",
   "Notes": "Wednesday 2 - 4pm",
   "Address Short": "700 Hoefner Avenue",
   "City State Zip": "Los Angeles, CA 90022, United States",
   "Address Consolidated": "700 Hoefner Avenue Los Angeles, CA 90022, United States",
   "Latitude": 34.0209416,
   "Longitude": -118.1494151
 },
 {
   "Name": "East LA Community Corporation",
   "Notes": "3rd Tuesday 9am-11am",
   "Address Short": "611 South Lorena St.",
   "City State Zip": "Los Angeles, CA 90023, United States",
   "Address Consolidated": "611 South Lorena St. Los Angeles, CA 90023, United States",
   "Latitude": 34.031107,
   "Longitude": -118.1999823
 },
 {
   "Name": "Eastmont Community Center",
   "Notes": "Tuesday 8:30 AM - 10 AM",
   "Address Short": "701 Hoefner Avenue",
   "City State Zip": "Los Angeles, CA 90022, United States",
   "Address Consolidated": "701 Hoefner Avenue Los Angeles, CA 90022, United States",
   "Latitude": 34.0210131,
   "Longitude": -118.1501655
 },
 {
   "Name": "Eastmont S.D.A. Spanish Church",
   "Notes": "Monday 6:00pm - 7:30pm",
   "Address Short": "1021 Westside Drive",
   "City State Zip": "Los Angeles, CA 90022, United States",
   "Address Consolidated": "1021 Westside Drive Los Angeles, CA 90022, United States",
   "Latitude": 34.0137182,
   "Longitude": -118.1376601
 },
 {
   "Name": "Education & Economic Development Community Center",
   "Notes": "3rd Saturday 11am-2pm",
   "Address Short": "8204 S. Avalon Blvd",
   "City State Zip": "Los Angeles, CA 90003, United States",
   "Address Consolidated": "8204 S. Avalon Blvd Los Angeles, CA 90003, United States",
   "Latitude": 33.9645348,
   "Longitude": -118.2648592
 },
 {
   "Name": "El Camino Community College District Foundation",
   "Notes": "Tuesday 12pm-5pm Wednesday & Thursday 10am-3pm",
   "Address Short": "16007 Crenshaw Blvd.",
   "City State Zip": "Torrance, CA 90506, United States",
   "Address Consolidated": "16007 Crenshaw Blvd. Torrance, CA 90506, United States",
   "Latitude": 33.8835254,
   "Longitude": -118.3321158
 },
 {
   "Name": "El Hajj Malik Shabazz Islamic Center",
   "Notes": "2nd & 4th Friday 2pm-3:30pm",
   "Address Short": "2914 W. Jefferson Blvd",
   "City State Zip": "Los Angeles, CA 90018, United States",
   "Address Consolidated": "2914 W. Jefferson Blvd Los Angeles, CA 90018, United States",
   "Latitude": 34.0254205,
   "Longitude": -118.3277412
 },
 {
   "Name": "El Monte Wesleyan Christian Church",
   "Notes": "1st & 3rd Tuesday 11am- 12:30pm, 11/4  2 pm - 3 pm",
   "Address Short": "2400 Santa Anita Avenue",
   "City State Zip": "South El Monte, CA 91733, United States",
   "Address Consolidated": "2400 Santa Anita Avenue South El Monte, CA 91733, United States",
   "Latitude": 34.0562594,
   "Longitude": -118.0420711
 },
 {
   "Name": "El Monte/South El Monte Emergency Resource Association",
   "Notes": "Monday - Friday 11:30 am - 1 pm",
   "Address Short": "10900 Mulhall Street",
   "City State Zip": "South El Monte, CA 91731, United States",
   "Address Consolidated": "10900 Mulhall Street South El Monte, CA 91731, United States",
   "Latitude": 34.0887718,
   "Longitude": -118.0297671
 },
 {
   "Name": "El Santo Nino Community Center",
   "Notes": "2nd & 4th Wednesday 1pm-2:30pm",
   "Address Short": "601 E. 23rd St",
   "City State Zip": "Los Angeles, CA 90011, United States",
   "Address Consolidated": "601 E. 23rd St Los Angeles, CA 90011, United States",
   "Latitude": 34.0251492,
   "Longitude": -118.2614856
 },
 {
   "Name": "El Sereno Spanish S.D.A. Church",
   "Notes": "Sundays 8am-10am",
   "Address Short": "3304 N Eastern Ave",
   "City State Zip": "Los Angeles, CA 90032, United States",
   "Address Consolidated": "3304 N Eastern Ave Los Angeles, CA 90032, United States",
   "Latitude": 34.0836448,
   "Longitude": -118.1777287
 },
 {
   "Name": "Eliza Shanks Homes. Inc.",
   "Notes": "Monday - Friday 9am - 5pm",
   "Address Short": "13055 Weidner Street",
   "City State Zip": "Pacoima, CA 91331, United States",
   "Address Consolidated": "13055 Weidner Street Pacoima, CA 91331, United States",
   "Latitude": 34.2772231,
   "Longitude": -118.4174074
 },
 {
   "Name": "Emmanuel Covenant Church of Northridge",
   "Notes": "Tuesday 11:30am-1pm & Friday 12pm-2pm",
   "Address Short": "17645 Saticoy St",
   "City State Zip": "Northridge, CA 91325, United States",
   "Address Consolidated": "17645 Saticoy St Northridge, CA 91325, United States",
   "Latitude": 34.2088163,
   "Longitude": -118.5180987
 },
 {
   "Name": "Encounter Community Church",
   "Notes": "2nd Wednesday 9am - 11am",
   "Address Short": "18749 Crenshaw Boulevard",
   "City State Zip": "Torrance, CA 90504, United States",
   "Address Consolidated": "18749 Crenshaw Boulevard Torrance, CA 90504, United States",
   "Latitude": 33.8600152,
   "Longitude": -118.3273172
 },
 {
   "Name": "Ephesus S.D.A. Church",
   "Notes": "Wednesday 10am - 11 am  &  4th Thursday 11am - 2pm  OPEN November 20 CLOSED November 27, OPEN December 11 CLOSED December 25",
   "Address Short": "7005 S. Western Avenue",
   "City State Zip": "Los Angeles, CA 90047, United States",
   "Address Consolidated": "7005 S. Western Avenue Los Angeles, CA 90047, United States",
   "Latitude": 33.9759737,
   "Longitude": -118.3092595
 },
 {
   "Name": "Esmirna Pentecostal Church",
   "Notes": "Friday 10am-1pm",
   "Address Short": "5414 N. Figueroa Street",
   "City State Zip": "Los Angeles, CA 90042, United States",
   "Address Consolidated": "5414 N. Figueroa Street Los Angeles, CA 90042, United States",
   "Latitude": 34.1072122,
   "Longitude": -118.196612
 },
 {
   "Name": "Estrella Del Mar de L.A. (Regis House CoMun",
   "Notes": "2nd and 4th Wednesday 10am - 11am",
   "Address Short": "2212 Beverly Boulevard",
   "City State Zip": "Los Angeles, CA 90057, United States",
   "Address Consolidated": "2212 Beverly Boulevard Los Angeles, CA 90057, United States",
   "Latitude": 34.0670916,
   "Longitude": -118.271985
 },
 {
   "Name": "Faith Baptist Fellowship of Long Beach",
   "Notes": "2nd Saturday 10am - 1pm",
   "Address Short": "2155 Atlantic Avenue",
   "City State Zip": "Long Beach, CA 90806, United States",
   "Address Consolidated": "2155 Atlantic Avenue Long Beach, CA 90806, United States",
   "Latitude": 33.7963304,
   "Longitude": -118.1853353
 },
 {
   "Name": "Faithful Walk Ministries",
   "Notes": "3rd Saturday 11am-1pm",
   "Address Short": "6125  S. San Pedro Street",
   "City State Zip": "Los Angeles, CA 90003, United States",
   "Address Consolidated": "6125  S. San Pedro Street Los Angeles, CA 90003, United States",
   "Latitude": 33.9835,
   "Longitude": -118.269861
 },
 {
   "Name": "Family Health Care Centers of Greater Los Angeles",
   "Notes": "3rd Wednesday 9 am- 11 am",
   "Address Short": "6501 S. Garfield Ave",
   "City State Zip": "Bell Gardens, CA 90201, United States",
   "Address Consolidated": "6501 S. Garfield Ave Bell Gardens, CA 90201, United States",
   "Latitude": 33.9729696,
   "Longitude": -118.1478791
 },
 {
   "Name": "Family Health Care Resources",
   "Notes": "Friday 9 am - 3 pm",
   "Address Short": "3444 Whitter Blvd.",
   "City State Zip": "Los Angeles, CA 90023, United States",
   "Address Consolidated": "3444 Whitter Blvd. Los Angeles, CA 90023, United States",
   "Latitude": 34.0269402,
   "Longitude": -118.199737
 },
 {
   "Name": "Family Life Center Apostolic Church",
   "Notes": "Thursday 9am - 11am",
   "Address Short": "7435 Norwalk Blvd.",
   "City State Zip": "Whittier, CA 90606, United States",
   "Address Consolidated": "7435 Norwalk Blvd. Whittier, CA 90606, United States",
   "Latitude": 33.9787859,
   "Longitude": -118.0768676
 },
 {
   "Name": "Family Mennonite Church",
   "Notes": "2nd Saturday 9am - 11am",
   "Address Short": "6520 S. Normandie Avenue",
   "City State Zip": "Los Angeles, CA 90044, United States",
   "Address Consolidated": "6520 S. Normandie Avenue Los Angeles, CA 90044, United States",
   "Latitude": 33.9799791,
   "Longitude": -118.2999374
 },
 {
   "Name": "Feed My Sheep Christian Fellowship",
   "Notes": "2nd and 4th Friday 10am-1pm",
   "Address Short": "1305 E. Compton Blvd",
   "City State Zip": "Compton, CA 90221, United States",
   "Address Consolidated": "1305 E. Compton Blvd Compton, CA 90221, United States",
   "Latitude": 33.8961999,
   "Longitude": -118.2092442
 },
 {
   "Name": "Fifty-fourth Street S.D.A. Church",
   "Notes": "2nd & 4th Saturday 2:30pm-3:30pm",
   "Address Short": "1973 West 54th Street",
   "City State Zip": "Los Angeles, CA 90062, United States",
   "Address Consolidated": "1973 West 54th Street Los Angeles, CA 90062, United States",
   "Latitude": 33.993557,
   "Longitude": -118.313484
 },
 {
   "Name": "Figueroa Church of Christ",
   "Notes": "Tuesday & Thursday 7:30am - 9 am",
   "Address Short": "455 W. 57th St.",
   "City State Zip": "Los Angeles, CA 90037, United States",
   "Address Consolidated": "455 W. 57th St. Los Angeles, CA 90037, United States",
   "Latitude": 33.9908584,
   "Longitude": -118.282171
 },
 {
   "Name": "Filipino Christian Church",
   "Notes": "2nd & 4th Saturday 10am - 11am",
   "Address Short": "301 N. Union Avenue",
   "City State Zip": "Los Angeles, CA 90026, United States",
   "Address Consolidated": "301 N. Union Avenue Los Angeles, CA 90026, United States",
   "Latitude": 34.067609,
   "Longitude": -118.264533
 },
 {
   "Name": "Finger of God Goodnews Ministry",
   "Notes": "2nd & 4th Saturday 10AM - 12 PM",
   "Address Short": "21919 S. Figueroa Street",
   "City State Zip": "Carson, CA 90745, United States",
   "Address Consolidated": "21919 S. Figueroa Street Carson, CA 90745, United States",
   "Latitude": 33.8283762,
   "Longitude": -118.286487
 },
 {
   "Name": "First African Methodist Episcopal Church",
   "Notes": "4th Saturday 9am - 12pm",
   "Address Short": "2270 S. Harvard Boulevard",
   "City State Zip": "Los Angeles, CA 90018, United States",
   "Address Consolidated": "2270 S. Harvard Boulevard Los Angeles, CA 90018, United States",
   "Latitude": 34.0344884,
   "Longitude": -118.3063515
 },
 {
   "Name": "First Baptist Church of Alhambra",
   "Notes": "2nd , 4th Thursday 11 am - 12 pm",
   "Address Short": "101 S. Atlantic Blvd.",
   "City State Zip": "Alhambra, CA 91801, United States",
   "Address Consolidated": "101 S. Atlantic Blvd. Alhambra, CA 91801, United States",
   "Latitude": 34.0898709,
   "Longitude": -118.1352798
 },
 {
   "Name": "First Christian Church Wilmington",
   "Notes": "4th Saturday 9am-10am",
   "Address Short": "444 E. Lomita Blvd",
   "City State Zip": "Wilmington, CA 90744, United States",
   "Address Consolidated": "444 E. Lomita Blvd Wilmington, CA 90744, United States",
   "Latitude": 33.7985372,
   "Longitude": -118.2666529
 },
 {
   "Name": "First Church of the Nazarene - Pasadena",
   "Notes": "Wednesday 9am - 12pm",
   "Address Short": "3700 E. Sierra Madre Boulevard",
   "City State Zip": "Pasadena, CA 91107, United States",
   "Address Consolidated": "3700 E. Sierra Madre Boulevard Pasadena, CA 91107, United States",
   "Latitude": 34.1602421,
   "Longitude": -118.0745907
 },
 {
   "Name": "First Lutheran Church of Inglewood",
   "Notes": "Wednesday 10 am - 12 pm , Saturday 9 am - 12 pm",
   "Address Short": "600 West Queen Street",
   "City State Zip": "Inglewood, CA 90301, United States",
   "Address Consolidated": "600 West Queen Street Inglewood, CA 90301, United States",
   "Latitude": 33.9624112,
   "Longitude": -118.3666276
 },
 {
   "Name": "First Missionary Baptist Church",
   "Notes": "2nd and 4th Thursday 11am - 12:30pm",
   "Address Short": "37721 N. 100th Street E.",
   "City State Zip": "Littlerock, CA 93543, United States",
   "Address Consolidated": "37721 N. 100th Street E. Littlerock, CA 93543, United States",
   "Latitude": 34.5678245,
   "Longitude": -117.9526445
 },
 {
   "Name": "First New Christian Fellowship",
   "Notes": "Wednesday 2pm- 4pm; Thursday 9 - 11am",
   "Address Short": "1555 W. 108th Street",
   "City State Zip": "Los Angeles, CA 90047, United States",
   "Address Consolidated": "1555 W. 108th Street Los Angeles, CA 90047, United States",
   "Latitude": 33.9383978,
   "Longitude": -118.304557
 },
 {
   "Name": "First Presbyterian Church",
   "Notes": "1st & 3rd Saturday 9am-11am CLOSED November 15, OPEN November 22 1 pm - 3pm",
   "Address Short": "1809 West Boulevard",
   "City State Zip": "Los Angeles, CA 90019, United States",
   "Address Consolidated": "1809 West Boulevard Los Angeles, CA 90019, United States",
   "Latitude": 34.0406344,
   "Longitude": -118.3372
 },
 {
   "Name": "First Southern Baptist Church of Hollywood",
   "Notes": "Mondays 9:30am-while supplies last, Fridays 4pm-7pm (or while supplies last)",
   "Address Short": "1528 N. Wilton Place",
   "City State Zip": "Hollywood, CA 90028, United States",
   "Address Consolidated": "1528 N. Wilton Place Hollywood, CA 90028, United States",
   "Latitude": 34.0991288,
   "Longitude": -118.3133707
 },
 {
   "Name": "First Unitarian Church",
   "Notes": "Saturday 7am - 9:30am",
   "Address Short": "2936 W. 8th Street",
   "City State Zip": "Los Angeles, CA 90005, United States",
   "Address Consolidated": "2936 W. 8th Street Los Angeles, CA 90005, United States",
   "Latitude": 34.0573803,
   "Longitude": -118.2902094
 },
 {
   "Name": "First United Church of Reseda",
   "Notes": "Wednesday 1pm - 3pm",
   "Address Short": "18120 Saticoy St",
   "City State Zip": "Reseda, CA 91335, United States",
   "Address Consolidated": "18120 Saticoy St Reseda, CA 91335, United States",
   "Latitude": 34.2080804,
   "Longitude": -118.5279552
 },
 {
   "Name": "First United Methodist Church of La Puente",
   "Notes": "2nd Tuesday 10am - 12:30 PM & Last Sunday 10am - 12:30 PM",
   "Address Short": "15701 E. Hill Street",
   "City State Zip": "La Puente, CA 91744, United States",
   "Address Consolidated": "15701 E. Hill Street La Puente, CA 91744, United States",
   "Latitude": 34.026403,
   "Longitude": -117.9507813
 },
 {
   "Name": "First United Methodist Church of Montebello",
   "Notes": "1st and 3rd Saturday 12pm - 3pm",
   "Address Short": "1220 W. Whittier Blvd",
   "City State Zip": "Montebello, CA 90640, United States",
   "Address Consolidated": "1220 W. Whittier Blvd Montebello, CA 90640, United States",
   "Latitude": 34.0117663,
   "Longitude": -118.1134715
 },
 {
   "Name": "FMBC-Helping Hands",
   "Notes": "Wednesday 10am-12pm",
   "Address Short": "1300 E. 57th Street",
   "City State Zip": "Los Angeles, CA 90011, United States",
   "Address Consolidated": "1300 E. 57th Street Los Angeles, CA 90011, United States",
   "Latitude": 33.9908369,
   "Longitude": -118.2518864
 },
 {
   "Name": "Focus SoCal",
   "Notes": "2nd & 4th Saturday 10am-12pm Except in April will be the 1st & 4th",
   "Address Short": "2300 W. 3rd St",
   "City State Zip": "Los Angeles, CA 90057, United States",
   "Address Consolidated": "2300 W. 3rd St Los Angeles, CA 90057, United States",
   "Latitude": 34.063654,
   "Longitude": -118.2751845
 },
 {
   "Name": "Food on Foot",
   "Notes": "Sunday's 1pm-3:45pm",
   "Address Short": "1625 Schrader Blvd",
   "City State Zip": "Los Angeles, CA 90028, United States",
   "Address Consolidated": "1625 Schrader Blvd Los Angeles, CA 90028, United States",
   "Latitude": 34.1005519,
   "Longitude": -118.3327323
 },
 {
   "Name": "Foothill Unity Center",
   "Notes": "Monday, Wednesday, Friday 9am-1130am",
   "Address Short": "790 W. Chestnut Avenue",
   "City State Zip": "Monrovia, CA 91016, United States",
   "Address Consolidated": "790 W. Chestnut Avenue Monrovia, CA 91016, United States",
   "Latitude": 34.1422118,
   "Longitude": -118.0157726
 },
 {
   "Name": "Foothill Unity Center",
   "Notes": "Tuesday, Wednesday, Friday 9 am - 11:30 am",
   "Address Short": "191 N. Oak Avenue",
   "City State Zip": "Pasadena, CA 91107, United States",
   "Address Consolidated": "191 N. Oak Avenue Pasadena, CA 91107, United States",
   "Latitude": 34.1497175,
   "Longitude": -118.107833
 },
 {
   "Name": "For the Love of Our Veterans",
   "Notes": "Saturday 12pm-3pm & 4th Sunday 12pm-1pm",
   "Address Short": "601 W Rosecrans",
   "City State Zip": "Los Angeles, CA 90222, United States",
   "Address Consolidated": "601 W Rosecrans Los Angeles, CA 90222, United States",
   "Latitude": 33.9035532,
   "Longitude": -118.234499
 },
 {
   "Name": "Freedom Church",
   "Notes": "Wednesday 9 am - 11 am",
   "Address Short": "9200 Owensmouth Ave",
   "City State Zip": "Chatsworth, CA 91311, United States",
   "Address Consolidated": "9200 Owensmouth Ave Chatsworth, CA 91311, United States",
   "Latitude": 34.2372164,
   "Longitude": -118.6014079
 },
 {
   "Name": "Freedom of Spirit Church",
   "Notes": "1st & 3rd Friday 11:30am-1pm",
   "Address Short": "6010 S. Broadway",
   "City State Zip": "Los Angeles, CA 90003, United States",
   "Address Consolidated": "6010 S. Broadway Los Angeles, CA 90003, United States",
   "Latitude": 33.9847268,
   "Longitude": -118.2780143
 },
 {
   "Name": "Fresh Anointing C.O.G.I.C.",
   "Notes": "Tuesday 10am-12pm",
   "Address Short": "9020 Imperial Hwy",
   "City State Zip": "Downey, CA 90242, United States",
   "Address Consolidated": "9020 Imperial Hwy Downey, CA 90242, United States",
   "Latitude": 33.9167033,
   "Longitude": -118.1365212
 },
 {
   "Name": "Friends In Deed",
   "Notes": "Tuesday, Wednesday 10 am - 3 pm & Thursday 10 am - 1 pm",
   "Address Short": "444 E. Washing - n Boulevard",
   "City State Zip": "Pasadena, CA 91104, United States",
   "Address Consolidated": "444 E. Washing - n Boulevard Pasadena, CA 91104, United States",
   "Latitude": 34.1687084,
   "Longitude": -118.1413204
 },
 {
   "Name": "Gabrieleno-Tongva Tribal Council",
   "Notes": "1st & 3rd Friday 3 pm - 4 pm",
   "Address Short": "203 E. Mission Rd",
   "City State Zip": "San Gabriel, CA 91776, United States",
   "Address Consolidated": "203 E. Mission Rd San Gabriel, CA 91776, United States",
   "Latitude": 34.0937662,
   "Longitude": -118.0981572
 },
 {
   "Name": "Gardena S.D.A. Church",
   "Notes": "1st & 3rd Saturday 12pm-3pm",
   "Address Short": "16113 S. Denker Avenue",
   "City State Zip": "Gardena, CA 90247, United States",
   "Address Consolidated": "16113 S. Denker Avenue Gardena, CA 90247, United States",
   "Latitude": 33.8844806,
   "Longitude": -118.3047326
 },
 {
   "Name": "Gardena Valley Assembly of God",
   "Notes": "Sunday 12:30 pm - 1:30 pm",
   "Address Short": "1473 W. 182nd Street",
   "City State Zip": "Gardena, CA 90248, United States",
   "Address Consolidated": "1473 W. 182nd Street Gardena, CA 90248, United States",
   "Latitude": 33.8660981,
   "Longitude": -118.3020668
 },
 {
   "Name": "Glassell Park S.D.A Church",
   "Notes": "3rd Saturday 2 pm - 4 pm",
   "Address Short": "1500 N. Ave 53",
   "City State Zip": "Los Angeles, CA 90042, United States",
   "Address Consolidated": "1500 N. Ave 53 Los Angeles, CA 90042, United States",
   "Latitude": 34.1213034,
   "Longitude": -118.2000192
 },
 {
   "Name": "Glendale Central Spanish S.D.A. Church",
   "Notes": "2nd, 4th Wednesday 3pm - 5pm",
   "Address Short": "901 E. Broadway",
   "City State Zip": "Glendale, CA 91205, United States",
   "Address Consolidated": "901 E. Broadway Glendale, CA 91205, United States",
   "Latitude": 34.1465005,
   "Longitude": -118.243964
 },
 {
   "Name": "Glendale Community College - Garfield Campus",
   "Notes": "1st Friday 1pm-3pm",
   "Address Short": "1122 E Garfield Ave",
   "City State Zip": "Glendale, CA 91205, United States",
   "Address Consolidated": "1122 E Garfield Ave Glendale, CA 91205, United States",
   "Latitude": 34.1357212,
   "Longitude": -118.2407844
 },
 {
   "Name": "Glendale Community College - Verdugo Campus",
   "Notes": "1st Wednesday 1pm-3pm",
   "Address Short": "1500 N Verdugo Rd",
   "City State Zip": "Glendale, CA 91208, United States",
   "Address Consolidated": "1500 N Verdugo Rd Glendale, CA 91208, United States",
   "Latitude": 34.1673571,
   "Longitude": -118.2277571
 },
 {
   "Name": "God's Glorious Praise Ministries",
   "Notes": "Saturday 10am - 1pm",
   "Address Short": "17808 Sierra Highway",
   "City State Zip": "Canyon Country, CA 91387, United States",
   "Address Consolidated": "17808 Sierra Highway Canyon Country, CA 91387, United States",
   "Latitude": 34.4267054,
   "Longitude": -118.4469448
 },
 {
   "Name": "God's Pantry",
   "Notes": "4th Saturday 8 am - 10 am",
   "Address Short": "710 N. Lark Ellen Ave",
   "City State Zip": "West Covina, CA 91791, United States",
   "Address Consolidated": "710 N. Lark Ellen Ave West Covina, CA 91791, United States",
   "Latitude": 34.0836196,
   "Longitude": -117.9161736
 },
 {
   "Name": "Gods Divine Center Holiness Deliverance Church",
   "Notes": "2nd Friday 10am - 1pm",
   "Address Short": "525 East 55th Street",
   "City State Zip": "Long Beach, CA 90805, United States",
   "Address Consolidated": "525 East 55th Street Long Beach, CA 90805, United States",
   "Latitude": 33.8563348,
   "Longitude": -118.185329
 },
 {
   "Name": "Gods Pantry",
   "Notes": "3rd Friday 9am-11am",
   "Address Short": "1040 E. Gladstone St.",
   "City State Zip": "Azusa, CA 91702, United States",
   "Address Consolidated": "1040 E. Gladstone St. Azusa, CA 91702, United States",
   "Latitude": 34.11371,
   "Longitude": -117.8867828
 },
 {
   "Name": "Gods Pantry",
   "Notes": "Wednesday 1:00 pm - 3:30pm",
   "Address Short": "250 East Center St",
   "City State Zip": "Pomona, CA 91767, United States",
   "Address Consolidated": "250 East Center St Pomona, CA 91767, United States",
   "Latitude": 34.0612469,
   "Longitude": -117.7468208
 },
 {
   "Name": "Good News Prayer Center",
   "Notes": "3rd Saturday 9 am - 12 pm",
   "Address Short": "8010 Figueroa St.",
   "City State Zip": "Los Angeles, CA 90003, United States",
   "Address Consolidated": "8010 Figueroa St. Los Angeles, CA 90003, United States",
   "Latitude": 33.9664879,
   "Longitude": -118.2824536
 },
 {
   "Name": "Good Sam Pantry/Beatitudes of our Lord",
   "Notes": "Thursday 4:30 pm - 5:30 pm",
   "Address Short": "13013 Santa Gertrudes Ave.",
   "City State Zip": "La Mirada, CA 90638, United States",
   "Address Consolidated": "13013 Santa Gertrudes Ave. La Mirada, CA 90638, United States",
   "Latitude": 33.9127709,
   "Longitude": -117.9947963
 },
 {
   "Name": "Good Shepherd Center (Catholic Charities of L.A.)",
   "Notes": "Monday & Wednesday 9am-12pm",
   "Address Short": "267 N Belmont Ave",
   "City State Zip": "Los Angeles, CA 90026, United States",
   "Address Consolidated": "267 N Belmont Ave Los Angeles, CA 90026, United States",
   "Latitude": 34.0666278,
   "Longitude": -118.2635801
 },
 {
   "Name": "Good Shepherd Lutheran Church",
   "Notes": "Sunday 8:30am-9:30am & 2nd & 4th Sunday 11am-12:30pm",
   "Address Short": "1350 W. 25th St",
   "City State Zip": "San Pedro, CA 90732, United States",
   "Address Consolidated": "1350 W. 25th St San Pedro, CA 90732, United States",
   "Latitude": 33.7223884,
   "Longitude": -118.3069247
 },
 {
   "Name": "Gospel Mission Baptist Church",
   "Notes": "Wednesday 11 am - 12 pm & 6:15 pm - 6:45 pm",
   "Address Short": "7301 S. Avalon Boulevard",
   "City State Zip": "Los Angeles, CA 90003, United States",
   "Address Consolidated": "7301 S. Avalon Boulevard Los Angeles, CA 90003, United States",
   "Latitude": 33.9735906,
   "Longitude": -118.2655068
 },
 {
   "Name": "Grace Evangelical Free Church of La Mirada",
   "Notes": "Friday 1pm - 5pm",
   "Address Short": "12717 Santa Gertrudes Avenue",
   "City State Zip": "La Mirada, CA 90638, United States",
   "Address Consolidated": "12717 Santa Gertrudes Avenue La Mirada, CA 90638, United States",
   "Latitude": 33.9157395,
   "Longitude": -117.9953692
 },
 {
   "Name": "Grace Memorial",
   "Notes": "2nd & 4th Saturday 9am-10am",
   "Address Short": "1021 E. 19th Street",
   "City State Zip": "Long Beach, CA 90806, United States",
   "Address Consolidated": "1021 E. 19th Street Long Beach, CA 90806, United States",
   "Latitude": 33.7913988,
   "Longitude": -118.1803542
 },
 {
   "Name": "Grace Resource Center, Inc.",
   "Notes": "Tuesday, Wednesday & Thursday Walk Ups 10:15am - 12pm & Drive Through Tuesday & Thursday  1pm -3pm",
   "Address Short": "45134 N. Sierra Hwy.",
   "City State Zip": "Lancaster, CA 93534, United States",
   "Address Consolidated": "45134 N. Sierra Hwy. Lancaster, CA 93534, United States",
   "Latitude": 34.7027136,
   "Longitude": -118.1373205
 },
 {
   "Name": "Grant AME Church",
   "Notes": "Thursday 9 am - 11 am",
   "Address Short": "1147 E. 105th Street.",
   "City State Zip": "Los Angeles, CA 90002, United States",
   "Address Consolidated": "1147 E. 105th Street. Los Angeles, CA 90002, United States",
   "Latitude": 33.9411661,
   "Longitude": -118.2549668
 },
 {
   "Name": "Greater Emmanuel M.B.C.",
   "Notes": "Friday 10 AM- 12 PM",
   "Address Short": "3727 W. 111th Pl",
   "City State Zip": "Inglewood, CA 90303, United States",
   "Address Consolidated": "3727 W. 111th Pl Inglewood, CA 90303, United States",
   "Latitude": 33.9340779,
   "Longitude": -118.3384248
 },
 {
   "Name": "Greater Emmanuel M.B.C.",
   "Notes": "Wednesday 10:30 am - 12:30 pm",
   "Address Short": "9239 S. Vermont Ave",
   "City State Zip": "Los Angeles, CA 90004, United States",
   "Address Consolidated": "9239 S. Vermont Ave Los Angeles, CA 90004, United States",
   "Latitude": 33.9524146,
   "Longitude": -118.292122
 },
 {
   "Name": "Greater Good News Church of God in Christ",
   "Notes": "2nd & 4th Sunday 10am-11am",
   "Address Short": "5840 S. Broadway",
   "City State Zip": "Los Angeles, CA 90003, United States",
   "Address Consolidated": "5840 S. Broadway Los Angeles, CA 90003, United States",
   "Latitude": 33.9884911,
   "Longitude": -118.2780143
 },
 {
   "Name": "Greater New Bethel Baptist Church, Inc.",
   "Notes": "2nd Tuesday, 4th Thursday 10 am - 1 pm",
   "Address Short": "601 E. 99th Street",
   "City State Zip": "Inglewood, CA 90301, United States",
   "Address Consolidated": "601 E. 99th Street Inglewood, CA 90301, United States",
   "Latitude": 33.9469064,
   "Longitude": -118.3464231
 },
 {
   "Name": "Greater New Light Baptist Church",
   "Notes": "Tuesday 10:30am-11:30am",
   "Address Short": "1734 Arroyo Ave",
   "City State Zip": "Pomona, CA 91768, United States",
   "Address Consolidated": "1734 Arroyo Ave Pomona, CA 91768, United States",
   "Latitude": 34.0652382,
   "Longitude": -117.7830802
 },
 {
   "Name": "Greater New Morning Star Baptist Church",
   "Notes": "Saturday 8:30am-12pm",
   "Address Short": "210 W. Florence Avenue",
   "City State Zip": "Los Angeles, CA 90003, United States",
   "Address Consolidated": "210 W. Florence Avenue Los Angeles, CA 90003, United States",
   "Latitude": 33.9743353,
   "Longitude": -118.276644
 },
 {
   "Name": "Guadalupe Food Program",
   "Notes": "2nd & 4th Wednesday 3:30pm-5:30pm",
   "Address Short": "4018 Hammel St",
   "City State Zip": "Los Angeles, CA 90063, United States",
   "Address Consolidated": "4018 Hammel St Los Angeles, CA 90063, United States",
   "Latitude": 34.042133,
   "Longitude": -118.1794993
 },
 {
   "Name": "H.O.P.E. Helping Other People Excel",
   "Notes": "Tuesday 10am - 12pm",
   "Address Short": "7615 S. Western Ave",
   "City State Zip": "Los Angeles, CA 90047, United States",
   "Address Consolidated": "7615 S. Western Ave Los Angeles, CA 90047, United States",
   "Latitude": 33.9703952,
   "Longitude": -118.3092688
 },
 {
   "Name": "Hacienda Christian Fellowship",
   "Notes": "2nd & 4th  Friday 2pm-4pm",
   "Address Short": "1358 N Hacienda Blvd",
   "City State Zip": "La Puente, CA 91744, United States",
   "Address Consolidated": "1358 N Hacienda Blvd La Puente, CA 91744, United States",
   "Latitude": 34.0453776,
   "Longitude": -117.9487438
 },
 {
   "Name": "Harbor Christian Center, Inc.",
   "Notes": "4th Tuesday , 4th Thursday & 4th Saturday 10:30am-12pm & 12:45pm-1:30pm",
   "Address Short": "1602 N. Wilmington Blvd.",
   "City State Zip": "Wilmington, CA 90744, United States",
   "Address Consolidated": "1602 N. Wilmington Blvd. Wilmington, CA 90744, United States",
   "Latitude": 33.7949509,
   "Longitude": -118.2748981
 },
 {
   "Name": "Harbor Interfaith Services",
   "Notes": "Monday - Friday 9:00 AM - 5:00 PM",
   "Address Short": "670 W. 9th St",
   "City State Zip": "San Pedro, CA 90732, United States",
   "Address Consolidated": "670 W. 9th St San Pedro, CA 90732, United States",
   "Latitude": 33.7363011,
   "Longitude": -118.2916572
 },
 {
   "Name": "Hawaiian Gardens Food Bank",
   "Notes": "Tuesday, Thursday 10am -3 PM, Wednesday 10am-5pm",
   "Address Short": "22121 Norwalk Blvd.",
   "City State Zip": "Hawaiian Gardens, CA 90716, United States",
   "Address Consolidated": "22121 Norwalk Blvd. Hawaiian Gardens, CA 90716, United States",
   "Latitude": 33.8270963,
   "Longitude": -118.0721441
 },
 {
   "Name": "Hawaiin Fedde Sports Complex",
   "Notes": "11/26/2025 | 9am - 12pm",
   "Address Short": "21301 Elaine Avenue",
   "City State Zip": "Hawaiian Gardens, CA 90716, United States",
   "Address Consolidated": "21301 Elaine Avenue Hawaiian Gardens, CA 90716, United States",
   "Latitude": 33.8357383,
   "Longitude": -118.076834
 },
 {
   "Name": "Hawthorne S.D.A. Church",
   "Notes": "1st and 3rd Sunday 10am - 12pm",
   "Address Short": "3939 Marine Ave",
   "City State Zip": "Hawthorne, CA 90250, United States",
   "Address Consolidated": "3939 Marine Ave Hawthorne, CA 90250, United States",
   "Latitude": 33.8951513,
   "Longitude": -118.3429262
 },
 {
   "Name": "Hays Tabernacle C.M.E. Church",
   "Notes": "2nd & 4th Tuesday  10:00 am - 2:00 pm",
   "Address Short": "10121 S. Central Ave.",
   "City State Zip": "Los Angeles, CA 90002, United States",
   "Address Consolidated": "10121 S. Central Ave. Los Angeles, CA 90002, United States",
   "Latitude": 33.9442971,
   "Longitude": -118.2544439
 },
 {
   "Name": "Healing & Hope 4 Homeless",
   "Notes": "1st and 3rd Saturday 7am-9am",
   "Address Short": "1327 W 64th St",
   "City State Zip": "Los Angeles, CA 90044, United States",
   "Address Consolidated": "1327 W 64th St Los Angeles, CA 90044, United States",
   "Latitude": 33.9816326,
   "Longitude": -118.2990537
 },
 {
   "Name": "Healing Los Angeles Together, Inc.",
   "Notes": "Wednesday 12pm-2pm & 1st ,3rd & 5th  Saturday 12pm-2pm",
   "Address Short": "11001 Crenshaw Blvd",
   "City State Zip": "Inglewood, Ca 90303, United States",
   "Address Consolidated": "11001 Crenshaw Blvd Inglewood, Ca 90303, United States",
   "Latitude": 33.9356739,
   "Longitude": -118.3268671
 },
 {
   "Name": "Heavenly Hope House of Prayer",
   "Notes": "Friday 10 am-1:45 pm",
   "Address Short": "3650 Western Ave",
   "City State Zip": "Los Angeles, CA 90016, United States",
   "Address Consolidated": "3650 Western Ave Los Angeles, CA 90016, United States",
   "Latitude": 34.0217824,
   "Longitude": -118.3087288
 },
 {
   "Name": "Help Me Help You",
   "Notes": "1st wedensday 2pm-3pm",
   "Address Short": "730 W 3rd Street",
   "City State Zip": "Long Beach, CA 90802, United States",
   "Address Consolidated": "730 W 3rd Street Long Beach, CA 90802, United States",
   "Latitude": 33.7696911,
   "Longitude": -118.2011245
 },
 {
   "Name": "Help Me Help You",
   "Notes": "2nd & 4th wedensday 11:15am-12:15pm",
   "Address Short": "1175 E 11th Street",
   "City State Zip": "Long Beach, CA 90813, United States",
   "Address Consolidated": "1175 E 11th Street Long Beach, CA 90813, United States",
   "Latitude": 33.7812116,
   "Longitude": -118.1770636
 },
 {
   "Name": "Help Me Help You",
   "Notes": "2nd and 4th Friday 2pm-3pm",
   "Address Short": "6822 Paramount Blvd.",
   "City State Zip": "Lakewood, CA 90805, United States",
   "Address Consolidated": "6822 Paramount Blvd. Lakewood, CA 90805, United States",
   "Latitude": 33.8786599,
   "Longitude": -118.1585302
 },
 {
   "Name": "Help Me Help You",
   "Notes": "1st & 3rd Wednesday 4pm-5pm",
   "Address Short": "628 Alamitos Ave.",
   "City State Zip": "Long Beach, CA 90802, United States",
   "Address Consolidated": "628 Alamitos Ave. Long Beach, CA 90802, United States",
   "Latitude": 33.7745062,
   "Longitude": -118.1797372
 },
 {
   "Name": "Help Me Help You",
   "Notes": "2nd and 4th Wednesdays 1pm - 2pm",
   "Address Short": "2640 Santa Fe Ave",
   "City State Zip": "Long Beach, CA 90810, United States",
   "Address Consolidated": "2640 Santa Fe Ave Long Beach, CA 90810, United States",
   "Latitude": 33.805261,
   "Longitude": -118.2150894
 },
 {
   "Name": "Help Me Help You",
   "Notes": "1st annd3rd Friday 1pm-2pm",
   "Address Short": "668 Obispo Ave",
   "City State Zip": "Long Beach, CA 90814, United States",
   "Address Consolidated": "668 Obispo Ave Long Beach, CA 90814, United States",
   "Latitude": 33.7747794,
   "Longitude": -118.1541576
 },
 {
   "Name": "Help Me Help You",
   "Notes": "2nd and 4th Friday 11:30am - 12:30pm",
   "Address Short": "700 Locust Ave",
   "City State Zip": "Long Beach, CA 90813, United States",
   "Address Consolidated": "700 Locust Ave Long Beach, CA 90813, United States",
   "Latitude": 33.775536,
   "Longitude": -118.1906597
 },
 {
   "Name": "Help Me Help You",
   "Notes": "3rd Wednesday 11:30am - 12:30pm",
   "Address Short": "1716 Walnut Ave",
   "City State Zip": "Long Beach, CA 90813, United States",
   "Address Consolidated": "1716 Walnut Ave Long Beach, CA 90813, United States",
   "Latitude": 33.7884002,
   "Longitude": -118.1718121
 },
 {
   "Name": "Help Me Help You",
   "Notes": "1st and 3rd Friday 11:30am - 12:30 pm",
   "Address Short": "515 Lime Ave",
   "City State Zip": "Long Beach, CA 90802, United States",
   "Address Consolidated": "515 Lime Ave Long Beach, CA 90802, United States",
   "Latitude": 33.7738309,
   "Longitude": -118.184025
 },
 {
   "Name": "Helping Hands, Caring Hearts Ministry",
   "Notes": "Saturday 9 am - 12 pm",
   "Address Short": "500 Vinton Ave",
   "City State Zip": "Pomona, CA 91767, United States",
   "Address Consolidated": "500 Vinton Ave Pomona, CA 91767, United States",
   "Latitude": 34.0781626,
   "Longitude": -117.7440486
 },
 {
   "Name": "Higher Vision Church",
   "Notes": "Saturday 9am-11am",
   "Address Short": "27053 Hanby Ave",
   "City State Zip": "Canyon Country, CA 91351, United States",
   "Address Consolidated": "27053 Hanby Ave Canyon Country, CA 91351, United States",
   "Latitude": 34.4250713,
   "Longitude": -118.4943473
 },
 {
   "Name": "Higher Vision Church",
   "Notes": "Wednesday 10am-11:30am & Saturday 9am-11am",
   "Address Short": "28776 The Old Road",
   "City State Zip": "Valencia, CA 91355, United States",
   "Address Consolidated": "28776 The Old Road Valencia, CA 91355, United States",
   "Latitude": 34.4415195,
   "Longitude": -118.6046902
 },
 {
   "Name": "His Helping Hands",
   "Notes": "Thurday 6pm - 7pm",
   "Address Short": "25501 Oak Street",
   "City State Zip": "Lomita, CA 90717, United States",
   "Address Consolidated": "25501 Oak Street Lomita, CA 90717, United States",
   "Latitude": 33.7920015,
   "Longitude": -118.3177934
 },
 {
   "Name": "HJ New Day New Way Recovery Inc.",
   "Notes": "3rd Thurs 12:30pm-3pm 1st & 2nd Sunday 11:30 am- 1 pm",
   "Address Short": "8722 Crenshaw Blvd",
   "City State Zip": "Inglewood, CA 90303, United States",
   "Address Consolidated": "8722 Crenshaw Blvd Inglewood, CA 90303, United States",
   "Latitude": 33.9583271,
   "Longitude": -118.3261224
 },
 {
   "Name": "Hollydale Regional Park MFP",
   "Notes": "1st Wednesday 9am-11am",
   "Address Short": "5400 Monroe Ave",
   "City State Zip": "South Gate, CA 90280, United States",
   "Address Consolidated": "5400 Monroe Ave South Gate, CA 90280, United States",
   "Latitude": 33.9201877,
   "Longitude": -118.1747328
 },
 {
   "Name": "Hollywood Community Housing",
   "Notes": "Thursday 3pm - 5pm, CLOSED 11/27, 12/25, 1/1",
   "Address Short": "5020 W. Santa Monica Boulevard",
   "City State Zip": "Los Angeles, CA 90029, United States",
   "Address Consolidated": "5020 W. Santa Monica Boulevard Los Angeles, CA 90029, United States",
   "Latitude": 34.0904399,
   "Longitude": -118.2987956
 },
 {
   "Name": "Hollywood Lutheran Church",
   "Notes": "Wednesday 11am - 1 PM",
   "Address Short": "1733 N. New Hampshire Ave.",
   "City State Zip": "Hollywood, CA 90027, United States",
   "Address Consolidated": "1733 N. New Hampshire Ave. Hollywood, CA 90027, United States",
   "Latitude": 34.1028083,
   "Longitude": -118.2936503
 },
 {
   "Name": "Holy Cross Center MFP",
   "Notes": "3rd Tuesday 9am-11am",
   "Address Short": "104 W. 47th Place",
   "City State Zip": "Los Angeles, CA 90037, United States",
   "Address Consolidated": "104 W. 47th Place Los Angeles, CA 90037, United States",
   "Latitude": 33.9997047,
   "Longitude": -118.2743145
 },
 {
   "Name": "Holy Family Giving Bank",
   "Notes": "Monday 9 am - 10:45 am",
   "Address Short": "1524 Fremont Avenue",
   "City State Zip": "South Pasadena, CA 91030, United States",
   "Address Consolidated": "1524 Fremont Avenue South Pasadena, CA 91030, United States",
   "Latitude": 34.1080226,
   "Longitude": -118.1526561
 },
 {
   "Name": "Holy Redeemer Lutheran Church",
   "Notes": "Friday 9am-10am",
   "Address Short": "14515 Blaine Ave",
   "City State Zip": "Bellflower, CA 90706, United States",
   "Address Consolidated": "14515 Blaine Ave Bellflower, CA 90706, United States",
   "Latitude": 33.9006004,
   "Longitude": -118.1271947
 },
 {
   "Name": "Holy Trinity Lutheran Church",
   "Notes": "2nd & 4th Saturday 12 pm - 1 pm",
   "Address Short": "9300 Crenshaw Blvd",
   "City State Zip": "Inglewood, CA 90305, United States",
   "Address Consolidated": "9300 Crenshaw Blvd Inglewood, CA 90305, United States",
   "Latitude": 33.9521226,
   "Longitude": -118.3260668
 },
 {
   "Name": "Holy Virgin Mary Coptic Orthodox Church",
   "Notes": "3rd Wednesday 9 AM - 10 AM",
   "Address Short": "4900 Cleland Avenue",
   "City State Zip": "Los Angeles, CA 90042, United States",
   "Address Consolidated": "4900 Cleland Avenue Los Angeles, CA 90042, United States",
   "Latitude": 34.1142932,
   "Longitude": -118.2104038
 },
 {
   "Name": "Hope & Cure Fibromyalgia Foundation Corporation",
   "Notes": "1st & 4th Saturday 10 am - 12pm",
   "Address Short": "2426 Santa Fe Ave",
   "City State Zip": "Long Beach, CA 90810, United States",
   "Address Consolidated": "2426 Santa Fe Ave Long Beach, CA 90810, United States",
   "Latitude": 33.8013833,
   "Longitude": -118.2151493
 },
 {
   "Name": "Hope Chapel Foursquare Church",
   "Notes": "Wednesday & Friday 9am - 12pm &  1pm - 4pm",
   "Address Short": "2420 Pacific Coast Highway",
   "City State Zip": "Hermosa Beach, CA 90254, United States",
   "Address Consolidated": "2420 Pacific Coast Highway Hermosa Beach, CA 90254, United States",
   "Latitude": 33.8715255,
   "Longitude": -118.394311
 },
 {
   "Name": "Hope Chapel Lancaster",
   "Notes": "1st, 3rd Friday 930am - 11am",
   "Address Short": "6015 W Avenue J8",
   "City State Zip": "Quartz Hill, CA 93536, United States",
   "Address Consolidated": "6015 W Avenue J8 Quartz Hill, CA 93536, United States",
   "Latitude": 34.682475,
   "Longitude": -118.2376777
 },
 {
   "Name": "Hope Chapel Lancaster - Mayflower Gardens",
   "Notes": "3rd Friday 12pm-1pm",
   "Address Short": "6570 W Avenue L12",
   "City State Zip": "Quartz Hill, CA 93536, United States",
   "Address Consolidated": "6570 W Avenue L12 Quartz Hill, CA 93536, United States",
   "Latitude": 34.6492887,
   "Longitude": -118.2470194
 },
 {
   "Name": "Hopes & Promises",
   "Notes": "Thursday 4pm - 6pm",
   "Address Short": "7106 Sorensen Ave",
   "City State Zip": "Whittier, CA 90606, United States",
   "Address Consolidated": "7106 Sorensen Ave Whittier, CA 90606, United States",
   "Latitude": 33.9769726,
   "Longitude": -118.0536181
 },
 {
   "Name": "House of Food and Prayer",
   "Notes": "Saturday 9am-12pm",
   "Address Short": "805 N. 1st Ave",
   "City State Zip": "Duarte, CA 91010, United States",
   "Address Consolidated": "805 N. 1st Ave Duarte, CA 91010, United States",
   "Latitude": 34.1484839,
   "Longitude": -118.0289284
 },
 {
   "Name": "Houses of Light Church Corporation",
   "Notes": "Saturdays 6:30am - 7:30am",
   "Address Short": "19359 Londelius Street",
   "City State Zip": "Northridge, CA 91324, United States",
   "Address Consolidated": "19359 Londelius Street Northridge, CA 91324, United States",
   "Latitude": 34.2304407,
   "Longitude": -118.5557711
 },
 {
   "Name": "ICNA Relief",
   "Notes": "3rd  Tuesday 4:10 pm  - 6 pm",
   "Address Short": "1301 E Las Tunas Dr",
   "City State Zip": "San Gabriel, CA 91776, United States",
   "Address Consolidated": "1301 E Las Tunas Dr San Gabriel, CA 91776, United States",
   "Latitude": 34.1040544,
   "Longitude": -118.0793696
 },
 {
   "Name": "ICNA Relief",
   "Notes": "1st Tuesdays 2:45 pm - 4 pm",
   "Address Short": "805 S. Garey Ave",
   "City State Zip": "Pomona, CA 91766, United States",
   "Address Consolidated": "805 S. Garey Ave Pomona, CA 91766, United States",
   "Latitude": 34.0521784,
   "Longitude": -117.7503192
 },
 {
   "Name": "ICNA Relief",
   "Notes": "3rd Thursday 2:30 pm-4:30 pm",
   "Address Short": "18206 Victory Blvd",
   "City State Zip": "Tarzana, CA 91335, United States",
   "Address Consolidated": "18206 Victory Blvd Tarzana, CA 91335, United States",
   "Latitude": 34.1862531,
   "Longitude": -118.5297453
 },
 {
   "Name": "ICNA Relief",
   "Notes": "2nd & 4th Tuesday 2:30 pm - 3:30 pm",
   "Address Short": "12209 Hawthorne Way",
   "City State Zip": "Hawthorne, CA 90250, United States",
   "Address Consolidated": "12209 Hawthorne Way Hawthorne, CA 90250, United States",
   "Latitude": 33.9217506,
   "Longitude": -118.353865
 },
 {
   "Name": "ICNA Relief USA Program",
   "Notes": "Tuesday 11 am-1 pm",
   "Address Short": "19164 E. Walnut Drive",
   "City State Zip": "Rowland Heights, CA 91748, United States",
   "Address Consolidated": "19164 E. Walnut Drive Rowland Heights, CA 91748, United States",
   "Latitude": 33.9953969,
   "Longitude": -117.8843317
 },
 {
   "Name": "Iglesia Cristiana El Shaddai USA",
   "Notes": "Friday  10am-12pm & Friday  9am-10am  CLOSED  11/7 &  December 2025",
   "Address Short": "5518 S. Broadway",
   "City State Zip": "Los Angeles, CA 90037, United States",
   "Address Consolidated": "5518 S. Broadway Los Angeles, CA 90037, United States",
   "Latitude": 33.9921093,
   "Longitude": -118.2780381
 },
 {
   "Name": "Iglesia de Cristo Elim",
   "Notes": "Saturday 7am - 9am",
   "Address Short": "550 S. Hollenbeck Ave.",
   "City State Zip": "Covina, CA 91723, United States",
   "Address Consolidated": "550 S. Hollenbeck Ave. Covina, CA 91723, United States",
   "Latitude": 34.0800083,
   "Longitude": -117.8986051
 },
 {
   "Name": "Iglesia de la Comunidad Presbyterian Church",
   "Notes": "1st & 3rd Thursday 10:30am - 12:30pm",
   "Address Short": "115 N. Ave 53",
   "City State Zip": "Los Angeles, CA 90042, United States",
   "Address Consolidated": "115 N. Ave 53 Los Angeles, CA 90042, United States",
   "Latitude": 34.1073413,
   "Longitude": -118.1981542
 },
 {
   "Name": "Iglesia Macedonia Defenders of the Christian Faith",
   "Notes": "Wednesday 6 am - 7:30 am, Thursday 8:30 am - 9:30 am & Saturday 1:30 pm - 2:30 pm",
   "Address Short": "9228 S. Central Ave",
   "City State Zip": "Los Angeles, CA 90002, United States",
   "Address Consolidated": "9228 S. Central Ave Los Angeles, CA 90002, United States",
   "Latitude": 33.9525626,
   "Longitude": -118.2557459
 },
 {
   "Name": "Iglesia Misionera Jesucristo Es Dios",
   "Notes": "Friday 8am-11am",
   "Address Short": "2801 Los Flores Blvd.",
   "City State Zip": "Lynwood, CA 90262, United States",
   "Address Consolidated": "2801 Los Flores Blvd. Lynwood, CA 90262, United States",
   "Latitude": 33.9329509,
   "Longitude": -118.2222436
 },
 {
   "Name": "Iglesia Pentecostal Peniel",
   "Notes": "Friday 10:30am-4pm",
   "Address Short": "2614 Pasadena Ave",
   "City State Zip": "Los Angeles, CA 90031, United States",
   "Address Consolidated": "2614 Pasadena Ave Los Angeles, CA 90031, United States",
   "Latitude": 34.0770232,
   "Longitude": -118.2153932
 },
 {
   "Name": "Iglesia Pentecostes El Lirio de Los Valles, Inc.",
   "Notes": "2nd & 4th Saturday 9am - 11 AM",
   "Address Short": "45029 N. Trevor Avenue, Suite #101",
   "City State Zip": "Lancaster, CA 93534, United States",
   "Address Consolidated": "45029 N. Trevor Avenue, Suite #101 Lancaster, CA 93534, United States",
   "Latitude": 34.7012626,
   "Longitude": -118.1345052
 },
 {
   "Name": "Iglesia Pentecostes Roca de Salvacion",
   "Notes": "Last Friday 8 am - 10:30 am ,  2nd & 4th Sunday 4:30pm-5:30pm",
   "Address Short": "122 S. Evergreen Avenue",
   "City State Zip": "Los Angeles, CA 90033, United States",
   "Address Consolidated": "122 S. Evergreen Avenue Los Angeles, CA 90033, United States",
   "Latitude": 34.0396789,
   "Longitude": -118.202581
 },
 {
   "Name": "Iglesia Un Renuevo",
   "Notes": "3rd Friday 5:30pm - 8pm",
   "Address Short": "13216 Fairford Ave.",
   "City State Zip": "Norwalk, CA 90650, United States",
   "Address Consolidated": "13216 Fairford Ave. Norwalk, CA 90650, United States",
   "Latitude": 33.9109543,
   "Longitude": -118.0945954
 },
 {
   "Name": "II Adam Ministries",
   "Notes": "Thursday 10/02, 10/16, 10/30, 11/06, 11/20, 12/04, 12/18  5pm - 7pm",
   "Address Short": "15849 E. Main St",
   "City State Zip": "La Puente, CA 91744, United States",
   "Address Consolidated": "15849 E. Main St La Puente, CA 91744, United States",
   "Latitude": 34.0203007,
   "Longitude": -117.9522903
 },
 {
   "Name": "Immanuel Presbyterian Church",
   "Notes": "Wednesday & Friday 9am - 12 PM",
   "Address Short": "663 S. Berendo Street",
   "City State Zip": "Los Angeles, CA 90005, United States",
   "Address Consolidated": "663 S. Berendo Street Los Angeles, CA 90005, United States",
   "Latitude": 34.0610919,
   "Longitude": -118.2944153
 },
 {
   "Name": "Impact LA",
   "Notes": "1st and 3rd Friday 10:00 am - 2:00 PM",
   "Address Short": "811 W. 7th Street Suite# 1236",
   "City State Zip": "Los Angeles, CA 90017, United States",
   "Address Consolidated": "811 W. 7th Street Suite# 1236 Los Angeles, CA 90017, United States",
   "Latitude": 34.0490854,
   "Longitude": -118.259013
 },
 {
   "Name": "Imperial Church of Christ",
   "Notes": "2nd & 4th Saturday 8am-9am",
   "Address Short": "11316 S. San Pedro Street",
   "City State Zip": "Los Angeles, CA 90061, United States",
   "Address Consolidated": "11316 S. San Pedro Street Los Angeles, CA 90061, United States",
   "Latitude": 33.9315739,
   "Longitude": -118.269153
 },
 {
   "Name": "Indonesian American SDA Church",
   "Notes": "1st,2nd, 3rd Tuseday 11:30am-1:00pm",
   "Address Short": "803 W. First St",
   "City State Zip": "Azusa, CA 91702, United States",
   "Address Consolidated": "803 W. First St Azusa, CA 91702, United States",
   "Latitude": 34.1220226,
   "Longitude": -117.9167297
 },
 {
   "Name": "Inglewood Church of Christ",
   "Notes": "2nd Saturday 11am - 1 PM",
   "Address Short": "323 S. Eucalyptus Ave.",
   "City State Zip": "Inglewood, CA 90301, United States",
   "Address Consolidated": "323 S. Eucalyptus Ave. Inglewood, CA 90301, United States",
   "Latitude": 33.9595298,
   "Longitude": -118.3598947
 },
 {
   "Name": "Inglewood Southside Christian Church",
   "Notes": "Saturday 10am - 1pm",
   "Address Short": "3947 W. 104th Street",
   "City State Zip": "Inglewood, CA 90303, United States",
   "Address Consolidated": "3947 W. 104th Street Inglewood, CA 90303, United States",
   "Latitude": 33.9421127,
   "Longitude": -118.3433255
 },
 {
   "Name": "Inglewood Wrapping Arms Around the Community",
   "Notes": "2nd & 4th Sunday 9am-12pm",
   "Address Short": "650 E Manchester Ave.",
   "City State Zip": "Inglewood, CA 90301, United States",
   "Address Consolidated": "650 E Manchester Ave. Inglewood, CA 90301, United States",
   "Latitude": 33.960159,
   "Longitude": -118.346893
 },
 {
   "Name": "Inglewood Wrapping Arms Around the Community / Masjid Bilal Islamic Center",
   "Notes": "Saturday 9am-12pm",
   "Address Short": "4016 S. Central Ave",
   "City State Zip": "Los Angeles, CA 90011, United States",
   "Address Consolidated": "4016 S. Central Ave Los Angeles, CA 90011, United States",
   "Latitude": 34.0106632,
   "Longitude": -118.2557678
 },
 {
   "Name": "Inland Valley Hope Partners",
   "Notes": "Monday - Thursday  9 am - 2:30 pm",
   "Address Short": "209 W. Pearl Street, Suite J104 *knock on door",
   "City State Zip": "Pomona, CA 91766, United States",
   "Address Consolidated": "209 W. Pearl Street, Suite J104 *knock on door Pomona, CA 91766, United States",
   "Latitude": 34.0649148,
   "Longitude": -117.7524328
 },
 {
   "Name": "Inland Valley Hope Partners",
   "Notes": "Tuesday 9 am - 4 pm",
   "Address Short": "660 N. Mountain Avenue",
   "City State Zip": "Claremont, CA 91711, United States",
   "Address Consolidated": "660 N. Mountain Avenue Claremont, CA 91711, United States",
   "Latitude": 34.0998744,
   "Longitude": -117.7281741
 },
 {
   "Name": "Inland Valley Hope Partners",
   "Notes": "Monday, Wednesday, Friday  2 pm - 4 pm",
   "Address Short": "110 E. 3rd Street",
   "City State Zip": "San Dimas, CA 91773, United States",
   "Address Consolidated": "110 E. 3rd Street San Dimas, CA 91773, United States",
   "Latitude": 34.1096106,
   "Longitude": -117.8066779
 },
 {
   "Name": "Inland Valley Hope Partners",
   "Notes": "Monday - Thursday  9 am - 3 pm",
   "Address Short": "904 E. California Street",
   "City State Zip": "Ontario, CA 91761, United States",
   "Address Consolidated": "904 E. California Street Ontario, CA 91761, United States",
   "Latitude": 34.0555515,
   "Longitude": -117.6363812
 },
 {
   "Name": "Inner City Child Development &Youth Foundation",
   "Notes": "Thurdsay 11am- 1pm",
   "Address Short": "8928 Figueroa St",
   "City State Zip": "Los Angeles, CA 90003, United States",
   "Address Consolidated": "8928 Figueroa St Los Angeles, CA 90003, United States",
   "Latitude": 33.9553598,
   "Longitude": -118.2824677
 },
 {
   "Name": "Interfaith Food Center",
   "Notes": "Monday, Tuesday & Friday  8:30 am -10 am , 10:30 am - 12 pm & Tuesday 4:30 pm - 6:30 pm",
   "Address Short": "11819 Burke Street",
   "City State Zip": "Santa Fe Springs, CA 90670, United States",
   "Address Consolidated": "11819 Burke Street Santa Fe Springs, CA 90670, United States",
   "Latitude": 33.9629368,
   "Longitude": -118.0650538
 },
 {
   "Name": "International Families Association",
   "Notes": "Monday 12pm-4pm",
   "Address Short": "240 S. Glendale Ave",
   "City State Zip": "Glendale, CA 91205, United States",
   "Address Consolidated": "240 S. Glendale Ave Glendale, CA 91205, United States",
   "Latitude": 34.143183,
   "Longitude": -118.2483963
 },
 {
   "Name": "Islah L.A.",
   "Notes": "Saturday 10am-2pm",
   "Address Short": "2900 Slauson Ave.",
   "City State Zip": "Los Angeles, CA 90043, United States",
   "Address Consolidated": "2900 Slauson Ave. Los Angeles, CA 90043, United States",
   "Latitude": 33.9888533,
   "Longitude": -118.3246887
 },
 {
   "Name": "Islamic Center of Southern CA - Hope Net",
   "Notes": "Saturday 9:30 am - 11 am",
   "Address Short": "434 S. Vermont Boulevard",
   "City State Zip": "Los Angeles, CA 90020, United States",
   "Address Consolidated": "434 S. Vermont Boulevard Los Angeles, CA 90020, United States",
   "Latitude": 34.0665598,
   "Longitude": -118.2916754
 },
 {
   "Name": "IVCINYA Foundation",
   "Notes": "Thursday 10/02, 10/16, 10/30, 11/13, 11/27, 12/11, 12/25  9am-1pm",
   "Address Short": "8928 Figueroa St",
   "City State Zip": "Los Angeles, CA 90003, United States",
   "Address Consolidated": "8928 Figueroa St Los Angeles, CA 90003, United States",
   "Latitude": 33.9553598,
   "Longitude": -118.2824677
 },
 {
   "Name": "Jeremiah 1:10 Corporation",
   "Notes": "Thursday 10am - 11 am",
   "Address Short": "10896 Lehigh Ave",
   "City State Zip": "Pacoima, CA 91331, United States",
   "Address Consolidated": "10896 Lehigh Ave Pacoima, CA 91331, United States",
   "Latitude": 34.2687979,
   "Longitude": -118.4153519
 },
 {
   "Name": "Jesucristo el Mana",
   "Notes": "Wednesday 5:30pm-6:30pm",
   "Address Short": "12838 Atlantic Ave",
   "City State Zip": "Compton, CA 90221, United States",
   "Address Consolidated": "12838 Atlantic Ave Compton, CA 90221, United States",
   "Latitude": 33.9050543,
   "Longitude": -118.1937958
 },
 {
   "Name": "Jesus House Palmdale",
   "Notes": "2nd & 4th Monday 12pm - 2pm",
   "Address Short": "313 E. Palmdale Blvd",
   "City State Zip": "Units A,  B, Palmdale, CA 93590, United States",
   "Address Consolidated": "313 E. Palmdale Blvd Units A,  B, Palmdale, CA 93590, United States",
   "Latitude": 34.580373,
   "Longitude": -118.1243146
 },